[{"id": "", "lat": "41.6512723207", "lon": "-0.882200904739", "title": "Paseo Independencia  nº 8", "subtitle":""},{"id": "", "lat": "41.6511609639", "lon": "-0.881517638782", "title": "Paseo Independencia  nº 11", "subtitle":""},{"id": "", "lat": "41.6531194332", "lon": "-0.875010787545", "title": "San Vicente de Paul nº 28", "subtitle":""},{"id": "", "lat": "41.6526171012", "lon": "-0.883204216682", "title": "Teniente Coronel Valenzuela nº 7", "subtitle":""},{"id": "", "lat": "41.6446379342", "lon": "-0.891004135976", "title": "Gran Vía nº 37", "subtitle":""},{"id": "", "lat": "41.6492940106", "lon": "-0.881538325509", "title": "Isaac Peral nº 14", "subtitle":""},{"id": "", "lat": "41.6456727912", "lon": "-0.876258818342", "title": "Camino de las Torres nº 24", "subtitle":""},{"id": "", "lat": "41.6401665394", "lon": "-0.885898506686", "title": "Camino de las Torres nº 118", "subtitle":""},{"id": "", "lat": "41.6469083633", "lon": "-0.88040845393", "title": "León XIII nº 3", "subtitle":""},{"id": "", "lat": "41.6457648271", "lon": "-0.882147487957", "title": "León XIII nº 17", "subtitle":""},{"id": "", "lat": "41.6537340717", "lon": "-0.884286189816", "title": "Avenida César Augusto nº 31", "subtitle":""},{"id": "", "lat": "41.6508233979", "lon": "-0.886580869971", "title": "Avenida César Augusto nº 7", "subtitle":""},{"id": "", "lat": "41.6498561385", "lon": "-0.888266315312", "title": "Paseo María Agustín", "subtitle":""},{"id": "", "lat": "41.6509083611", "lon": "-0.889306671846", "title": "Paseo María Agustín", "subtitle":""},{"id": "", "lat": "41.6580149902", "lon": "-0.890513046595", "title": "Santa Inés nº 11", "subtitle":""},{"id": "", "lat": "41.6496971788", "lon": "-0.899004883588", "title": "Vicente Verdusán nº  46", "subtitle":""},{"id": "", "lat": "41.6367974441", "lon": "-0.891499071803", "title": "Arzobispo Morcillo nº 44", "subtitle":""},{"id": "", "lat": "41.6354093955", "lon": "-0.900442944827", "title": "Isabel la Católica", "subtitle":""},{"id": "", "lat": "41.635769586", "lon": "-0.899955108766", "title": "Isabel la Católica", "subtitle":""},{"id": "", "lat": "41.6341035126", "lon": "-0.900402889285", "title": "Calamita nº 4", "subtitle":""},{"id": "", "lat": "41.6394054107", "lon": "-0.905332769788", "title": "Condes de Aragón nº 14", "subtitle":""},{"id": "", "lat": "41.6388533609", "lon": "-0.902111223674", "title": "Eduardo Ibarra (Auditorio)", "subtitle":""},{"id": "", "lat": "41.6257936639", "lon": "-0.911677477832", "title": "Argualas", "subtitle":""},{"id": "", "lat": "41.6438056417", "lon": "-0.903310807981", "title": "San Juan Bosco", "subtitle":""},{"id": "", "lat": "41.6436468643", "lon": "-0.903804757591", "title": "San Juan Bosco", "subtitle":""},{"id": "", "lat": "41.6437387714", "lon": "-0.903561646108", "title": "San Juan Bosco", "subtitle":""},{"id": "", "lat": "41.6509431709", "lon": "-0.914620545766", "title": "Andrés Vicente nº 1 y 3", "subtitle":""},{"id": "", "lat": "41.6487582319", "lon": "-0.922346385452", "title": "Oliván nº 3", "subtitle":""},{"id": "", "lat": "41.642936372", "lon": "-0.936010105132", "title": "Las Estrellas nº 13", "subtitle":""},{"id": "", "lat": "41.656087309", "lon": "-0.918600927267", "title": "Ramón J. Sender", "subtitle":""},{"id": "", "lat": "41.655449071", "lon": "-0.907851680324", "title": "Avenida de Navarra nº 75 y 77", "subtitle":""},{"id": "", "lat": "41.6529061146", "lon": "-0.904133766288", "title": "Paseo de Calanda nº 22", "subtitle":""},{"id": "", "lat": "41.6544063383", "lon": "-0.900365225856", "title": "Avenida de Madrid nº 95 y 97", "subtitle":""},{"id": "", "lat": "41.6609009469", "lon": "-0.900181833803", "title": "Avenida Pablo Gargallo nº 75", "subtitle":""},{"id": "", "lat": "41.6691094046", "lon": "-0.88927234203", "title": "María Zambrano - Gómez Avellaneda", "subtitle":""},{"id": "", "lat": "41.6718652538", "lon": "-0.89102986703", "title": "Gómez de Avellaneda nº 55 y 57", "subtitle":""},{"id": "", "lat": "41.6774175529", "lon": "-0.889048813074", "title": "Avenida María Zambra nº 58", "subtitle":""},{"id": "", "lat": "41.6697286864", "lon": "-0.845706981634", "title": "Río Martín nº 1", "subtitle":""},{"id": "", "lat": "41.6636732187", "lon": "-0.859545441102", "title": "Pedro Lázaro s/n", "subtitle":""},{"id": "", "lat": "41.6631458485", "lon": "-0.861005667971", "title": "Felisa Galé nº 6", "subtitle":""},{"id": "", "lat": "41.6491481413", "lon": "-0.861303694279", "title": "Salvador Minguijón nº 42", "subtitle":""},{"id": "", "lat": "41.6426992935", "lon": "-0.868948542976", "title": "Juana de Ibarbourou nº 1", "subtitle":""},{"id": "", "lat": "41.6391233804", "lon": "-0.879994313699", "title": "Avenida Tenor Fleta nº 57", "subtitle":""},{"id": "", "lat": "41.6314425463", "lon": "-0.885418216489", "title": "Avenida América nº 20", "subtitle":""},{"id": "", "lat": "41.625894878", "lon": "-0.877237064273", "title": "San Antonio de Padua s/n", "subtitle":""},{"id": "", "lat": "41.6236096042", "lon": "-0.887660884363", "title": "Cementerio Torrero (Tanatorio)", "subtitle":""},{"id": "", "lat": "41.6700998572", "lon": "-0.888771100874", "title": "Avenida María Zambrano nº 16", "subtitle":""},{"id": "", "lat": "41.6771008706", "lon": "-0.890884454273", "title": "Gómez de Avellaneda", "subtitle":""},{"id": "", "lat": "41.6691839187", "lon": "-0.890536586525", "title": "Gómez de Avellaneda nº 39", "subtitle":""},{"id": "", "lat": "41.6669527323", "lon": "-0.831629288482", "title": "Avenida de Santa Isabel nº 86", "subtitle":""},{"id": "", "lat": "41.659562943", "lon": "-0.874019396462", "title": "Sobrarbe nº 1", "subtitle":""}]
