[{"id": "0", "lat": "41.6498664", "lon": "-0.8768782", "title": "QUIOSCO", "subtitle":"Calle del Comandante Repollés, 18, 50001 Zaragoza, España"},{"id": "0", "lat": "41.6510102", "lon": "-0.8772596", "title": "CAI, URBANA 17", "subtitle":"Calle del Coso, 98, 50001 Zaragoza, España"},{"id": "0", "lat": "41.6470671", "lon": "-0.8766925", "title": "QUIOSCO FUNDACION DFA", "subtitle":"Calle de José Luis Pomarón Herranz, 5, 50008 Zaragoza, España"},{"id": "0", "lat": "41.6489221", "lon": "-0.8769054", "title": "QUIOSCO", "subtitle":"Paseo de la Mina, 21, 50001 Zaragoza, España"},{"id": "0", "lat": "41.6520979", "lon": "-0.8764514", "title": "QUIOSCO", "subtitle":"50001 Zaragoza, España"},{"id": "0", "lat": "41.657022", "lon": "-0.8798115", "title": "AYUNTAMIENTO", "subtitle":"Museo Pilarista, Plaza de Nuestra Señora del Pilar, 19, 50003 Zaragoza, España"},{"id": "0", "lat": "41.6530106", "lon": "-0.878113", "title": "EL ARBOL", "subtitle":"Calle de San Jorge, 3, 50001 Zaragoza, España"},{"id": "0", "lat": "41.6528345", "lon": "-0.8778218", "title": "IBERCAJA, OF. SAN JORGE", "subtitle":"Calle de San Jorge, 8, 50001 Zaragoza, España"},{"id": "0", "lat": "41.6530106", "lon": "-0.878113", "title": "QUIOSCO - EL ARBOL", "subtitle":"Calle de San Jorge, 3, 50001 Zaragoza, España"},{"id": "0", "lat": "41.6530106", "lon": "-0.878113", "title": "SUPERMERCADO EL ARBOL", "subtitle":"Calle de San Jorge, 3, 50001 Zaragoza, España"},{"id": "0", "lat": "41.652222", "lon": "-0.8765037", "title": "SUPERMERCADO EROSKI", "subtitle":"Calle de San Jorge, 22, 50001 Zaragoza, España"},{"id": "0", "lat": "41.6499744", "lon": "-0.8776751", "title": "SUPERMERCADO EROSKI", "subtitle":"Calle de San Miguel, 42, 50001 Zaragoza, España"},{"id": "0", "lat": "41.6530411", "lon": "-0.8771493", "title": "D.G.A. S. PEDRO NOLASCO", "subtitle":"Plaza de San Pedro Nolasco, 7, 50001 Zaragoza, España"},{"id": "0", "lat": "41.6510277", "lon": "-0.8769449", "title": "Martín Martín", "subtitle":"Calle de San Vicente Paul, 1, 50001 Zaragoza, España"},{"id": "0", "lat": "41.6499595", "lon": "-0.8803936", "title": "Tiendas de conveniencia", "subtitle":"Calle de Jerónimo Zurita, 14, 50001 Zaragoza, España"},{"id": "0", "lat": "41.6490946", "lon": "-0.8728015", "title": "QUIOSCO", "subtitle":"Calle del Asalto, 50002 Zaragoza, España"},{"id": "0", "lat": "41.6497099", "lon": "-0.8706617", "title": "SUPERMERCADO EROSKI", "subtitle":"Calle del Asalto, 65, 50002 Zaragoza, España"},{"id": "0", "lat": "41.6443002", "lon": "-0.8597695", "title": "QUIOSCO", "subtitle":"Calle de la Batalla de Lepanto, 59, 50002 Zaragoza, España"},{"id": "0", "lat": "41.6449654", "lon": "-0.8657986", "title": "QUIOSCO", "subtitle":"Calle de la Batalla de Lepanto, 15, 50002 Zaragoza, España"},{"id": "0", "lat": "41.644777", "lon": "-0.8646992", "title": "QUIOSCO", "subtitle":"Calle de la Batalla de Lepanto, 29, 50002 Zaragoza, España"},{"id": "0", "lat": "41.6453839", "lon": "-0.8620577", "title": "CAI, URBANA 8", "subtitle":"Av del Compromiso de Caspe, 95, 50002 Zaragoza, España"},{"id": "0", "lat": "41.6452173", "lon": "-0.8624674", "title": "MULTICAJA, URBANA 43", "subtitle":"Av del Compromiso de Caspe, 68, 50002 Zaragoza, España"},{"id": "0", "lat": "41.6456904", "lon": "-0.8668348", "title": "QUIOSCO", "subtitle":"Av del Compromiso de Caspe, 34, 50002 Zaragoza, España"},{"id": "0", "lat": "41.6449495", "lon": "-0.8602151", "title": "QUIOSCO", "subtitle":"Av del Compromiso de Caspe, 82, 50002 Zaragoza, España"},{"id": "0", "lat": "41.6449149", "lon": "-0.8590382", "title": "QUIOSCO", "subtitle":"Av del Compromiso de Caspe, 107, 50002 Zaragoza, España"},{"id": "0", "lat": "41.6455753", "lon": "-0.8646895", "title": "SUPERMERCADO EROSKI", "subtitle":"Av del Compromiso de Caspe, 77, 50002 Zaragoza, España"},{"id": "0", "lat": "41.650495", "lon": "-0.859696", "title": "QUIOSCO", "subtitle":"Calle de Comuneros de Castilla, 5, 50002 Zaragoza, España"},{"id": "0", "lat": "41.6507632", "lon": "-0.8757553", "title": "QUIOSCO", "subtitle":"Calle del Coso, 120, 50002 Zaragoza, España"},{"id": "0", "lat": "41.6525411", "lon": "-0.8725009", "title": "QUIOSCO", "subtitle":"Calle del Coso, 182, 50002 Zaragoza, España"},{"id": "0", "lat": "41.6477028", "lon": "-0.8638107", "title": "QUIOSCO", "subtitle":"Calle del Doctor Iranzo, 68, 50002 Zaragoza, España"},{"id": "0", "lat": "41.6493826", "lon": "-0.8634989", "title": "QUIOSCO", "subtitle":"Calle del Doctor Iranzo, 84, 50002 Zaragoza, España"},{"id": "0", "lat": "41.6545841", "lon": "-0.9032282", "title": "QUIOSCO", "subtitle":"Calle de Don Alonso de Aragón, 18, 50010 Zaragoza, España"},{"id": "0", "lat": "41.6492529", "lon": "-0.8609774", "title": "QUIOSCO", "subtitle":"Calle de Eugenia Bueso, 3, 50002 Zaragoza, España"},{"id": "0", "lat": "41.6492848", "lon": "-0.8615702", "title": "SUPERMERCADO EROSKI", "subtitle":"Calle de Florián Rey, 1, 50002 Zaragoza, España"},{"id": "0", "lat": "41.6466069", "lon": "-0.858854", "title": "QUIOSCO", "subtitle":"Calle de Fray Luis Urbano, 27, 50002 Zaragoza, España"},{"id": "0", "lat": "41.6465143", "lon": "-0.871268", "title": "QUIOSCO", "subtitle":"Calle de Joaquín Sanz Gadea, 1, 50002 Zaragoza, España"},{"id": "0", "lat": "41.6503138", "lon": "-0.8651303", "title": "QUIOSCO", "subtitle":"50002 Zaragoza, España"},{"id": "0", "lat": "41.6591662", "lon": "-0.8580812", "title": "QUIOSCO", "subtitle":"Calle de Manuel Viola, 2, 50014 Zaragoza, España"},{"id": "0", "lat": "41.647468", "lon": "-0.864328", "title": "QUIOSCO Papelería", "subtitle":"Calle del Monasterio de La Rábida, 2, 50002 Zaragoza, España"},{"id": "0", "lat": "41.6474585", "lon": "-0.8637959", "title": "CAJALON, URBANA 3", "subtitle":"Calle del Monasterio de Siresa, 15, 50002 Zaragoza, España"},{"id": "0", "lat": "41.6475456", "lon": "-0.86336", "title": "EL ARBOL", "subtitle":"Calle del Monasterio de Siresa, 20, 50002 Zaragoza, España"},{"id": "0", "lat": "41.6475254", "lon": "-0.8641866", "title": "Martín Martín", "subtitle":"Calle del Monasterio de Siresa, 24, 50002 Zaragoza, España"},{"id": "0", "lat": "41.6562873", "lon": "-0.8765379", "title": "QUIOSCO", "subtitle":"Zaragoza, España"},{"id": "0", "lat": "41.64764", "lon": "-0.8656427", "title": "QUIOSCO", "subtitle":"Calle del Monasterio de Siresa, 33, 50002 Zaragoza, España"},{"id": "0", "lat": "41.6477626", "lon": "-0.8659731", "title": "QUIOSCO", "subtitle":"Calle del Monasterio de Siresa, 34, 50002 Zaragoza, España"},{"id": "0", "lat": "41.6488684", "lon": "-0.8628871", "title": "QUIOSCO", "subtitle":"Plaza de Nuestra Señora del Portal, 3, 50002 Zaragoza, España"},{"id": "0", "lat": "41.6521596", "lon": "-0.8701327", "title": "QUIOSCO", "subtitle":"Calle de la Rebolería, 14, 50002 Zaragoza, España"},{"id": "0", "lat": "41.6509535", "lon": "-0.8682014", "title": "QUIOSCO", "subtitle":"Calle de la Reina Esther, 4, 50002 Zaragoza, España"},{"id": "0", "lat": "41.6451272", "lon": "-0.8750916", "title": "QUIOSCO", "subtitle":"Calle de Reina Fabiola, 22, 50008 Zaragoza, España"},{"id": "0", "lat": "41.6462375", "lon": "-0.8650527", "title": "QUIOSCO", "subtitle":"Calle de Rodrigo Rebolledo, 7, 50002 Zaragoza, España"},{"id": "0", "lat": "41.645767", "lon": "-0.8605632", "title": "QUIOSCO", "subtitle":"Calle de Rodrigo Rebolledo, 38, 50002 Zaragoza, España"},{"id": "0", "lat": "41.6462375", "lon": "-0.8650527", "title": "QUIOSCO", "subtitle":"Calle de Rodrigo Rebolledo, 7, 50002 Zaragoza, España"},{"id": "0", "lat": "41.6675483", "lon": "-0.827906", "title": "EL ARBOL", "subtitle":"Calle de Ruiz Lasala, 20, 50016 Zaragoza, España"},{"id": "0", "lat": "41.6482409", "lon": "-0.8616153", "title": "CAI, URBANA 51", "subtitle":"Calle de Salvador Minguijón, 33, 50002 Zaragoza, España"},{"id": "0", "lat": "41.6459051", "lon": "-0.8619175", "title": "IBERCAJA, URBANA 15", "subtitle":"Calle de Salvador Minguijón, 14, 50002 Zaragoza, España"},{"id": "0", "lat": "41.6454736", "lon": "-0.8619755", "title": "QUIOSCO", "subtitle":"Calle de Salvador Minguijón, 10, 50002 Zaragoza, España"},{"id": "0", "lat": "41.6482167", "lon": "-0.8635491", "title": "QUIOSCO", "subtitle":"Calle de Silvestre Pérez, 28, 50002 Zaragoza, España"},{"id": "0", "lat": "41.6518413", "lon": "-0.8679471", "title": "CAI, URBANA 83", "subtitle":"Plaza de Tauste, 1, 50002 Zaragoza, España"},{"id": "0", "lat": "41.6616345", "lon": "-0.896448", "title": "SUPERBIEN", "subtitle":"Av de la Almozara, 7, 50003 Zaragoza, España"},{"id": "0", "lat": "41.6392213", "lon": "-0.9361408", "title": "QUIOSCO", "subtitle":"Calle de Altair, 29, 50012 Zaragoza, España"},{"id": "0", "lat": "41.6622056", "lon": "-0.8992109", "title": "QUIOSCO", "subtitle":"Calle de la Batalla de Almansa, 12, 50003 Zaragoza, España"},{"id": "0", "lat": "41.6566404", "lon": "-0.8924151", "title": "QUIOSCO", "subtitle":"Calle de Basilio Boggiero, 182, 50003 Zaragoza, España"},{"id": "0", "lat": "41.6616961", "lon": "-0.9023648", "title": "QUIOSCO", "subtitle":"Calle de Bonn, 1, 50003 Zaragoza, España"},{"id": "0", "lat": "41.6606624", "lon": "-0.9030739", "title": "Martín Martín", "subtitle":"Calle de Bruselas, 2, 50003 Zaragoza, España"},{"id": "0", "lat": "41.6609919", "lon": "-0.9027744", "title": "QUIOSCO", "subtitle":"Calle de Bruselas, 7, 50003 Zaragoza, España"},{"id": "0", "lat": "41.6573048", "lon": "-0.8911098", "title": "QUIOSCO", "subtitle":"Calle de Cereros, 22, 50003 Zaragoza, España"},{"id": "0", "lat": "41.6542322", "lon": "-0.8839282", "title": "CAI, URBANA 31", "subtitle":"Av de César Augusto, 48, 50003 Zaragoza, España"},{"id": "0", "lat": "41.65579", "lon": "-0.8908951", "title": "CAI, URBANA 15", "subtitle":"Calle Conde de Aranda, 114, 50003 Zaragoza, España"},{"id": "0", "lat": "41.6546597", "lon": "-0.8859726", "title": "QUIOSCO", "subtitle":"Calle Conde de Aranda, 2, 50003 Zaragoza, España"},{"id": "0", "lat": "41.6527399", "lon": "-0.8815071", "title": "CAJALON, OFICINA PRINCIPAL", "subtitle":"Calle del Coso, 29, 50003 Zaragoza, España"},{"id": "0", "lat": "41.6535243", "lon": "-0.8782091", "title": "CAI, URBANA 4", "subtitle":"Calle de Don Jaime I, 33, 50003 Zaragoza, España"},{"id": "0", "lat": "41.6543232", "lon": "-0.8774777", "title": "QUIOSCO", "subtitle":"Calle de Don Jaime I, 37, 50003 Zaragoza, España"},{"id": "0", "lat": "41.6519942", "lon": "-0.8812422", "title": "QUIOSCO", "subtitle":"Plaza de España, 3, 50004 Zaragoza, España"},{"id": "0", "lat": "41.6594023", "lon": "-0.9002135", "title": "QUIOSCO", "subtitle":"Calle de Fraga, 14, 50003 Zaragoza, España"},{"id": "0", "lat": "41.6504171", "lon": "-0.8826701", "title": "QUIOSCO", "subtitle":"Paseo de la Independencia, 50004 Zaragoza, España"},{"id": "0", "lat": "41.657327", "lon": "-0.8934555", "title": "EL ARBOL", "subtitle":"Paseo de María Agustín, 97, 50004 Zaragoza, España"},{"id": "0", "lat": "41.6606352", "lon": "-0.9053373", "title": "QUIOSCO", "subtitle":"Calle de Mónaco, 11, 50003 Zaragoza, España"},{"id": "0", "lat": "41.6556775", "lon": "-0.8929931", "title": "QUIOSCO", "subtitle":"Calle de Monseñor Óscar Romero, 50004 Zaragoza, España"},{"id": "0", "lat": "41.6606124", "lon": "-0.8992464", "title": "CAI, URBANA 26", "subtitle":"Av de Pablo Gargallo, 69, 50003 Zaragoza, España"},{"id": "0", "lat": "41.6599133", "lon": "-0.8961482", "title": "CAJALON, URBANA 4", "subtitle":"Av de Pablo Gargallo, 19, 50003 Zaragoza, España"},{"id": "0", "lat": "41.6608327", "lon": "-0.9002907", "title": "IBERCAJA, URBANA 66", "subtitle":"Av de Pablo Gargallo, 75, 50003 Zaragoza, España"},{"id": "0", "lat": "41.6605928", "lon": "-0.8990728", "title": "Martín Martín", "subtitle":"Av de Pablo Gargallo, 65, 50003 Zaragoza, España"},{"id": "0", "lat": "41.6611349", "lon": "-0.9021537", "title": "MULTICAJA, URBANA 49", "subtitle":"Av de Pablo Gargallo, 93, 50003 Zaragoza, España"},{"id": "0", "lat": "41.6604717", "lon": "-0.8984698", "title": "QUIOSCO", "subtitle":"Av de Pablo Gargallo, 55, 50003 Zaragoza, España"},{"id": "0", "lat": "41.6616427", "lon": "-0.9033973", "title": "QUIOSCO", "subtitle":"Av de Pablo Gargallo, 105, 50003 Zaragoza, España"},{"id": "0", "lat": "41.659432", "lon": "-0.8942542", "title": "QUIOSCO", "subtitle":"Av de Pablo Gargallo, 7, 50003 Zaragoza, España"},{"id": "0", "lat": "41.6614957", "lon": "-0.903203", "title": "QUIOSCO (PANADERÍA)", "subtitle":"Av de Pablo Gargallo, 103, 50003 Zaragoza, España"},{"id": "0", "lat": "41.6598147", "lon": "-0.8949955", "title": "SUPERMERCADO EROSKI", "subtitle":"Av de Pablo Gargallo, 36, 50003 Zaragoza, España"},{"id": "0", "lat": "41.6616316", "lon": "-0.903685", "title": "QUIOSCO Vídeoclub", "subtitle":"Av de Pablo Gargallo, 107, 50003 Zaragoza, España"},{"id": "0", "lat": "41.6616148", "lon": "-0.8973888", "title": "QUIOSCO", "subtitle":"Calle del Padre Consolación, 16, 50003 Zaragoza, España"},{"id": "0", "lat": "41.6725129", "lon": "-0.8348499", "title": "QUIOSCO Expendid. nº 54", "subtitle":"Av de la Industria, 50016 Zaragoza, España"},{"id": "0", "lat": "41.6575617", "lon": "-0.8856419", "title": "QUIOSCO", "subtitle":"Calle de los Predicadores, 50003 Zaragoza, España"},{"id": "0", "lat": "41.6591608", "lon": "-0.8994181", "title": "QUIOSCO", "subtitle":"Calle de la Reina Felicia, 35, 50003 Zaragoza, España"},{"id": "0", "lat": "41.6562873", "lon": "-0.8765379", "title": "QUIOSCO", "subtitle":"Zaragoza, España"},{"id": "0", "lat": "41.6527579", "lon": "-0.8772732", "title": "QUIOSCO", "subtitle":"Plaza de San Pedro Nolasco, 1, 50001 Zaragoza, España"},{"id": "0", "lat": "41.6540295", "lon": "-0.8786339", "title": "MULTICAJA, OFICINA PRINCIPAL", "subtitle":"Calle de San Voto, 50003 Zaragoza, España"},{"id": "0", "lat": "41.6572329", "lon": "-0.890714", "title": "QUIOSCO", "subtitle":"Calle de Santa Inés, 12, 50003 Zaragoza, España"},{"id": "0", "lat": "41.6583128", "lon": "-0.8909779", "title": "QUIOSCO", "subtitle":"Calle de Santa Lucía, 8, 50003 Zaragoza, España"},{"id": "0", "lat": "41.6495196", "lon": "-0.8852879", "title": "QUIOSCO", "subtitle":"Calle de José Luis Albareda, 19, 50004 Zaragoza, España"},{"id": "0", "lat": "41.6490305", "lon": "-0.8936539", "title": "EL ARBOL", "subtitle":"Calle de José Anselmo Clavé, 49, 50004 Zaragoza, España"},{"id": "0", "lat": "41.6496208", "lon": "-0.8935631", "title": "QUIOSCO", "subtitle":"Calle de José Anselmo Clavé, 37, 50004 Zaragoza, España"},{"id": "0", "lat": "41.6496208", "lon": "-0.8935631", "title": "QUIOSCO", "subtitle":"Calle de José Anselmo Clavé, 37, 50004 Zaragoza, España"},{"id": "0", "lat": "41.6482701", "lon": "-0.8850658", "title": "CABINA TUZSA PZA DE ARAGON", "subtitle":"Plaza de Aragón, 50004 Zaragoza, España"},{"id": "0", "lat": "41.6516912", "lon": "-0.8842833", "title": "QUIOSCO", "subtitle":"Calle de Azoque, 37, 50004 Zaragoza, España"},{"id": "0", "lat": "41.6482798", "lon": "-0.8906283", "title": "QUIOSCO", "subtitle":"Calle de Benito Pérez Galdós, 2, 50005 Zaragoza, España"},{"id": "0", "lat": "41.6491868", "lon": "-0.8857851", "title": "QUIOSCO", "subtitle":"Calle de Bilbao, 7, 50004 Zaragoza, España"},{"id": "0", "lat": "41.6492337", "lon": "-0.886359", "title": "MULTICAJA, URBANA 100", "subtitle":"Calle de Canfranc, 22, 50004 Zaragoza, España"},{"id": "0", "lat": "41.6509576", "lon": "-0.8860006", "title": "CAI, URBANA 9", "subtitle":"Av de César Augusto, 18, 50004 Zaragoza, España"},{"id": "0", "lat": "41.6501566", "lon": "-0.8869872", "title": "QUIOSCO", "subtitle":"Av de César Augusto, 4, 50004 Zaragoza, España"},{"id": "0", "lat": "41.651719", "lon": "-0.8826911", "title": "EL ARBOL", "subtitle":"Calle Cinco de Marzo, 12, 50004 Zaragoza, España"},{"id": "0", "lat": "41.6553298", "lon": "-0.8893005", "title": "IBERCAJA, URBANA 1", "subtitle":"Calle Conde de Aranda, 101, 50004 Zaragoza, España"},{"id": "0", "lat": "41.6551017", "lon": "-0.8885401", "title": "QUIOSCO", "subtitle":"Calle Conde de Aranda, 45, 50004 Zaragoza, España"},{"id": "0", "lat": "41.6497684", "lon": "-0.8905532", "title": "QUIOSCO", "subtitle":"Calle del Doctor Horno Alcorta, 50004 Zaragoza, España"},{"id": "0", "lat": "41.6487863", "lon": "-0.8892853", "title": "CAJALON, URBANA 1", "subtitle":"Calle de Hernán Cortés, 12, 50004 Zaragoza, España"},{"id": "0", "lat": "41.649394", "lon": "-0.8881752", "title": "QUIOSCO", "subtitle":"Calle de Hernán Cortés, 1, 50004 Zaragoza, España"},{"id": "0", "lat": "41.6502502", "lon": "-0.8828415", "title": "CAI. OFICINA PRINCIPAL", "subtitle":"Paseo de la Independencia, 50004 Zaragoza, España"},{"id": "0", "lat": "41.6502502", "lon": "-0.8828415", "title": "CENTRO COMERCIAL INDEPENDENCIA (CARACOL)", "subtitle":"Paseo de la Independencia, 50004 Zaragoza, España"},{"id": "0", "lat": "41.6502502", "lon": "-0.8828415", "title": "CENTRO COMERCIAL INDEPENDENCIA (CARACOL 2)", "subtitle":"Paseo de la Independencia, 50004 Zaragoza, España"},{"id": "0", "lat": "41.6502502", "lon": "-0.8828415", "title": "QUIOSCO", "subtitle":"Paseo de la Independencia, 50004 Zaragoza, España"},{"id": "0", "lat": "41.6502502", "lon": "-0.8828415", "title": "QUIOSCO", "subtitle":"Paseo de la Independencia, 50004 Zaragoza, España"},{"id": "0", "lat": "41.6497305", "lon": "-0.8911269", "title": "QUIOSCO", "subtitle":"Calle de Madre Sacramento, 28, 50004 Zaragoza, España"},{"id": "0", "lat": "41.64944", "lon": "-0.8906864", "title": "QUIOSCO", "subtitle":"Calle de Madre Sacramento, 20, 50004 Zaragoza, España"},{"id": "0", "lat": "41.6556705", "lon": "-0.8950363", "title": "QUIOSCO", "subtitle":"Av de Madrid, 17, 50004 Zaragoza, España"},{"id": "0", "lat": "41.653409", "lon": "-0.8927501", "title": "QUIOSCO", "subtitle":"Paseo de María Agustín, 67, 50004 Zaragoza, España"},{"id": "0", "lat": "41.6494331", "lon": "-0.8877093", "title": "QUIOSCO", "subtitle":"Paseo de Pamplona, 25, 50004 Zaragoza, España"},{"id": "0", "lat": "41.6513698", "lon": "-0.89016", "title": "QUIOSCO", "subtitle":"50004 Zaragoza, España"},{"id": "0", "lat": "41.6513698", "lon": "-0.89016", "title": "QUIOSCO", "subtitle":"50004 Zaragoza, España"},{"id": "0", "lat": "41.6443222", "lon": "-0.8953411", "title": "Martín Martín", "subtitle":"Calle de Tomás Bretón, 22, 50005 Zaragoza, España"},{"id": "0", "lat": "41.6448949", "lon": "-0.8966572", "title": "QUIOSCO", "subtitle":"Calle de Tomás Bretón, 27, 50005 Zaragoza, España"},{"id": "0", "lat": "41.6453947", "lon": "-0.8976139", "title": "QUIOSCO", "subtitle":"Calle de Tomás Bretón, 31, 50005 Zaragoza, España"},{"id": "0", "lat": "41.6476247", "lon": "-0.8956714", "title": "QUIOSCO", "subtitle":"Calle de Burgos, 14, 50005 Zaragoza, España"},{"id": "0", "lat": "41.6418684", "lon": "-0.8848412", "title": "QUIOSCO", "subtitle":"Calle del Comandante Santa Pau, 17, 50008 Zaragoza, España"},{"id": "0", "lat": "41.6562873", "lon": "-0.8765379", "title": "QUIOSCO", "subtitle":"Zaragoza, España"},{"id": "0", "lat": "41.6469016", "lon": "-0.8913838", "title": "QUIOSCO", "subtitle":"Calle de las Cortes de Aragón, 4, 50005 Zaragoza, España"},{"id": "0", "lat": "41.6462051", "lon": "-0.8918055", "title": "QUIOSCO", "subtitle":"Calle de las Cortes de Aragón, 19, 50005 Zaragoza, España"},{"id": "0", "lat": "41.648951", "lon": "-0.8991079", "title": "MULTICAJA, URBANA 62", "subtitle":"Calle de Desiderio Escosura, 65, 50005 Zaragoza, España"},{"id": "0", "lat": "41.6476179", "lon": "-0.8885339", "title": "SUPERMERCADO EROSKI", "subtitle":"Calle del Doctor Cerrada, 14, 50005 Zaragoza, España"},{"id": "0", "lat": "41.6484813", "lon": "-0.8987358", "title": "QUIOSCO", "subtitle":"Calle de Desiderio Escosura, 44, 50005 Zaragoza, España"},{"id": "0", "lat": "41.6469011", "lon": "-0.8989532", "title": "EL ARBOL", "subtitle":"Calle de José García Sánchez, 16, 50005 Zaragoza, España"},{"id": "0", "lat": "41.6468796", "lon": "-0.8935484", "title": "QUIOSCO", "subtitle":"Av de Goya, 90, 50005 Zaragoza, España"},{"id": "0", "lat": "41.6448843", "lon": "-0.8914513", "title": "CAI, URBANA 11", "subtitle":"Paseo Gran Vía, 52, 50005 Zaragoza, España"},{"id": "0", "lat": "41.6455075", "lon": "-0.8908565", "title": "CAJALON, URBANA 20", "subtitle":"Paseo Gran Vía, 40, 50005 Zaragoza, España"},{"id": "0", "lat": "41.6448843", "lon": "-0.8914513", "title": "Martín Martín", "subtitle":"Paseo Gran Vía, 52, 50005 Zaragoza, España"},{"id": "0", "lat": "41.6479682", "lon": "-0.8903083", "title": "CAI, URBANA 64", "subtitle":"Calle de Hernán Cortés, 22, 50005 Zaragoza, España"},{"id": "0", "lat": "41.6455934", "lon": "-0.8963219", "title": "QUIOSCO", "subtitle":"Calle de Juan José Lorente, 26, 50005 Zaragoza, España"},{"id": "0", "lat": "41.6453722", "lon": "-0.8980636", "title": "CAI, URBANA 10", "subtitle":"Calle del Maestro José Serrano, 1, 50005 Zaragoza, España"},{"id": "0", "lat": "41.6450496", "lon": "-0.8914713", "title": "QUIOSCO", "subtitle":"Calle del Poeta Marco Marcial, 1, 50005 Zaragoza, España"},{"id": "0", "lat": "41.6485482", "lon": "-0.8978239", "title": "EL ARBOL", "subtitle":"Calle de Tarragona, 32, 50005 Zaragoza, España"},{"id": "0", "lat": "41.6477676", "lon": "-0.8979663", "title": "QUIOSCO", "subtitle":"Calle de Toledo, 32, 50005 Zaragoza, España"},{"id": "0", "lat": "41.643696", "lon": "-0.8940588", "title": "QUIOSCO", "subtitle":"Calle de Tomás Bretón, 2, 50005 Zaragoza, España"},{"id": "0", "lat": "41.6469064", "lon": "-0.8958613", "title": "MULTICAJA, URBANA 64", "subtitle":"Av de Valencia, 24, 50005 Zaragoza, España"},{"id": "0", "lat": "41.6471084", "lon": "-0.8949616", "title": "QUIOSCO", "subtitle":"Av de Valencia, 11, 50005 Zaragoza, España"},{"id": "0", "lat": "41.6389786", "lon": "-0.8956594", "title": "SUPERMERCADO EROSKI", "subtitle":"Calle de Don Andrés Piquer, 14, 50006 Zaragoza, España"},{"id": "0", "lat": "41.6439556", "lon": "-0.8881157", "title": "Quiosco", "subtitle":"Calle del Arzobispo Domènech, 21, 50006 Zaragoza, España"},{"id": "0", "lat": "41.6448852", "lon": "-0.8879773", "title": "QUIOSCO", "subtitle":"Calle del Arzobispo Domènech, 12, 50006 Zaragoza, España"},{"id": "0", "lat": "41.6439556", "lon": "-0.8881157", "title": "QUIOSCO", "subtitle":"Calle del Arzobispo Domènech, 21, 50006 Zaragoza, España"},{"id": "0", "lat": "41.6396844", "lon": "-0.8951531", "title": "QUIOSCO", "subtitle":"Calle de Bruno Solano, 3, 50006 Zaragoza, España"},{"id": "0", "lat": "41.722284", "lon": "-1.0293464", "title": "QUIOSCO", "subtitle":"Calle de Cervantes, 4, 50620 Zaragoza, España"},{"id": "0", "lat": "41.6387332", "lon": "-0.8865675", "title": "QUIOSCO", "subtitle":"Glorieta de Diego Velázquez, 2, 50006 Zaragoza, España"},{"id": "0", "lat": "41.6418446", "lon": "-0.8926411", "title": "EL ARBOL", "subtitle":"Calle de Félix Latassa, 25, 50006 Zaragoza, España"},{"id": "0", "lat": "41.6413557", "lon": "-0.8941933", "title": "IBERCAJA, URBANA 10", "subtitle":"Paseo de Don Fernando El Católico, 35, 50006 Zaragoza, España"},{"id": "0", "lat": "41.6389027", "lon": "-0.8882333", "title": "Martín Martín", "subtitle":"Calle de Gascón de Gotor, 19, 50006 Zaragoza, España"},{"id": "0", "lat": "41.638513", "lon": "-0.8890956", "title": "QUIOSCO", "subtitle":"Calle de Gascón de Gotor, 26, 50006 Zaragoza, España"},{"id": "0", "lat": "41.6392433", "lon": "-0.887856", "title": "QUIOSCO", "subtitle":"Calle de Gascón de Gotor, 12, 50006 Zaragoza, España"},{"id": "0", "lat": "41.640533", "lon": "-0.8882614", "title": "QUIOSCO", "subtitle":"Calle de Juan Pablo Bonet, 16, 50006 Zaragoza, España"},{"id": "0", "lat": "41.6405463", "lon": "-0.8886586", "title": "QUIOSCO", "subtitle":"Calle de Juan Pablo Bonet, 20, 50006 Zaragoza, España"},{"id": "0", "lat": "41.6456747", "lon": "-0.8871442", "title": "QUIOSCO Expendeduría", "subtitle":"Calle de Mariano Royo Urieta, 14, 50006 Zaragoza, España"},{"id": "0", "lat": "41.6401602", "lon": "-0.8889678", "title": "QUIOSCO", "subtitle":"50006 Zaragoza, España"},{"id": "0", "lat": "41.6391391", "lon": "-0.8864418", "title": "CAI, URBANA 3", "subtitle":"Paseo de Sagasta, 80, 50006 Zaragoza, España"},{"id": "0", "lat": "41.6414833", "lon": "-0.8931142", "title": "QUIOSCO", "subtitle":"Calle de San Juan de la Cruz, 7, 50006 Zaragoza, España"},{"id": "0", "lat": "41.641278", "lon": "-0.8925952", "title": "Martín Martín", "subtitle":"Calle de Santa Teresa de Jesús, 20, 50006 Zaragoza, España"},{"id": "0", "lat": "41.637986", "lon": "-0.8948716", "title": "QUIOSCO", "subtitle":"Calle de Don Mariano Supervía, 37, 50006 Zaragoza, España"},{"id": "0", "lat": "41.6326498", "lon": "-0.8870076", "title": "QUIOSCO", "subtitle":"Calle de Juan Aguas, 6, 50007 Zaragoza, España"},{"id": "0", "lat": "41.6321285", "lon": "-0.8852953", "title": "CAI, URBANA 5", "subtitle":"Av de América, 14, 50007 Zaragoza, España"},{"id": "0", "lat": "41.6297153", "lon": "-0.8859061", "title": "CAJALON, URBANA 6", "subtitle":"Av de América, 67, 50007 Zaragoza, España"},{"id": "0", "lat": "41.6326144", "lon": "-0.8852754", "title": "IBERCAJA, URBANA 7", "subtitle":"Av de América, 4, 50007 Zaragoza, España"},{"id": "0", "lat": "41.6303373", "lon": "-0.8857258", "title": "MULTICAJA, URBANA 44", "subtitle":"Av de América, 53, 50007 Zaragoza, España"},{"id": "0", "lat": "41.6308558", "lon": "-0.885625", "title": "QUIOSCO", "subtitle":"Av de América, 34, 50007 Zaragoza, España"},{"id": "0", "lat": "41.6293943", "lon": "-0.8860005", "title": "QUIOSCO", "subtitle":"Av de América, 71, 50007 Zaragoza, España"},{"id": "0", "lat": "41.6326144", "lon": "-0.8852754", "title": "SUPERMERCADO EROSKI", "subtitle":"Av de América, 4, 50007 Zaragoza, España"},{"id": "0", "lat": "41.632572", "lon": "-0.8760273", "title": "Martín Martín", "subtitle":"Calle del Arcipreste de Hita, 1, 50007 Zaragoza, España"},{"id": "0", "lat": "41.6282555", "lon": "-0.8883695", "title": "QUIOSCO", "subtitle":"Calle de la Ateca, 36, 50007 Zaragoza, España"},{"id": "0", "lat": "41.6283875", "lon": "-0.8888698", "title": "QUIOSCO", "subtitle":"Calle de la Ateca, 50007 Zaragoza, España"},{"id": "0", "lat": "41.6325536", "lon": "-0.8791561", "title": "QUIOSCO", "subtitle":"Calle del Capitán Oroquieta, 4, 50007 Zaragoza, España"},{"id": "0", "lat": "41.6328399", "lon": "-0.8744771", "title": "QUIOSCO", "subtitle":"Calle de la Ciudad de Ceuta, 2, 50007 Zaragoza, España"},{"id": "0", "lat": "41.6271244", "lon": "-0.8738582", "title": "QUIOSCO", "subtitle":"Calle del Consejo de Ciento, 19, 50007 Zaragoza, España"},{"id": "0", "lat": "41.6273015", "lon": "-0.8813831", "title": "QUIOSCO", "subtitle":"Calle de La Coruña, 80, 50007 Zaragoza, España"},{"id": "0", "lat": "41.6245762", "lon": "-0.8765131", "title": "QUIOSCO", "subtitle":"Calle de la Cuarta Avenida, 70, 50007 Zaragoza, España"},{"id": "0", "lat": "41.6313376", "lon": "-0.8873773", "title": "EL ARBOL", "subtitle":"Calle de Cuarte, 1, 50007 Zaragoza, España"},{"id": "0", "lat": "41.636945", "lon": "-0.8844497", "title": "QUIOSCO", "subtitle":"Paseo de Cuéllar, 39, 50007 Zaragoza, España"},{"id": "0", "lat": "41.636215", "lon": "-0.8844009", "title": "QUIOSCO", "subtitle":"Paseo de Cuéllar, 45, 50007 Zaragoza, España"},{"id": "0", "lat": "41.6358769", "lon": "-0.8787238", "title": "QUIOSCO", "subtitle":"Calle del Doce de Octubre, 1, 50007 Zaragoza, España"},{"id": "0", "lat": "41.6359241", "lon": "-0.8788488", "title": "SUPERBIEN", "subtitle":"Calle del Doce de Octubre, 5, 50007 Zaragoza, España"},{"id": "0", "lat": "41.6355992", "lon": "-0.8784944", "title": "SUPERMERCADO EROSKI", "subtitle":"Calle del Doce de Octubre, 10, 50007 Zaragoza, España"},{"id": "0", "lat": "41.6358769", "lon": "-0.8787238", "title": "Tiendas de conveniencia", "subtitle":"Calle del Doce de Octubre, 1, 50007 Zaragoza, España"},{"id": "0", "lat": "41.6292736", "lon": "-0.8861947", "title": "QUIOSCO", "subtitle":"Calle del Doctor Martínez Vargas, 2, 50007 Zaragoza, España"},{"id": "0", "lat": "41.634236", "lon": "-0.8782536", "title": "CAI, URBANA 30", "subtitle":"Calle del Escultor Lobato, 41, 50007 Zaragoza, España"},{"id": "0", "lat": "41.6318758", "lon": "-0.8856202", "title": "QUIOSCO", "subtitle":"Calle de Fray Julián Garcés, 2, 50007 Zaragoza, España"},{"id": "0", "lat": "41.6354218", "lon": "-0.879429", "title": "QUIOSCO", "subtitle":"Calle de Federico García Lorca, 1, 50007 Zaragoza, España"},{"id": "0", "lat": "41.6470905", "lon": "-0.8990759", "title": "QUIOSCO", "subtitle":"Calle de José García Sánchez, 20, 50005 Zaragoza, España"},{"id": "0", "lat": "41.6487065", "lon": "-0.9002573", "title": "QUIOSCO", "subtitle":"Calle de José García Sánchez, 38, 50005 Zaragoza, España"},{"id": "0", "lat": "41.6284593", "lon": "-0.8844735", "title": "SUPERMERCADO EROSKI", "subtitle":"Calle de los Hermanos Gimeno Vizarra, 34, 50007 Zaragoza, España"},{"id": "0", "lat": "41.6376381", "lon": "-0.8787098", "title": "QUIOSCO", "subtitle":"Calle de Don José Pellicer, 17, 50007 Zaragoza, España"},{"id": "0", "lat": "41.6282756", "lon": "-0.883952", "title": "CAI, URBANA 23", "subtitle":"Calle de Lasierra Purroy, 53, 50007 Zaragoza, España"},{"id": "0", "lat": "41.6280379", "lon": "-0.883894", "title": "QUIOSCO", "subtitle":"Calle de Lasierra Purroy, 82, 50007 Zaragoza, España"},{"id": "0", "lat": "41.6781697", "lon": "-0.892449", "title": "QUIOSCO", "subtitle":"Calle de Margarita Xirgú, 12, 50018 Zaragoza, España"},{"id": "0", "lat": "41.6392739", "lon": "-0.8849223", "title": "QUIOSCO", "subtitle":"Calle de María Moliner, 12, 50007 Zaragoza, España"},{"id": "0", "lat": "41.6295562", "lon": "-0.8824071", "title": "QUIOSCO", "subtitle":"Calle del Monzón, 26, 50007 Zaragoza, España"},{"id": "0", "lat": "41.6256548", "lon": "-0.877799", "title": "IBERCAJA, URBANA 62", "subtitle":"Calle de Oviedo, 177, 50007 Zaragoza, España"},{"id": "0", "lat": "41.6358836", "lon": "-0.8749706", "title": "QUIOSCO", "subtitle":"Camino de Puente del Virrey, 72, 50007 Zaragoza, España"},{"id": "0", "lat": "41.6254781", "lon": "-0.8790302", "title": "CAI, URBANA 45", "subtitle":"Calle de San Eugenio, 50007 Zaragoza, España"},{"id": "0", "lat": "41.6449824", "lon": "-0.8725063", "title": "EL ARBOL", "subtitle":"Av de San José, 15, 50013 Zaragoza, España"},{"id": "0", "lat": "41.6321783", "lon": "-0.8832772", "title": "QUIOSCO", "subtitle":"Calle de Sancho Ramírez, 16, 50007 Zaragoza, España"},{"id": "0", "lat": "41.6235082", "lon": "-0.875937", "title": "SUPERMERCADO EROSKI", "subtitle":"Calle de Soleimán, 2, 50007 Zaragoza, España"},{"id": "0", "lat": "41.6410802", "lon": "-0.8842357", "title": "MULTICAJA, URBANA 47", "subtitle":"Av del Tenor Fleta, 18, 50007 Zaragoza, España"},{"id": "0", "lat": "41.6384824", "lon": "-0.8785527", "title": "QUIOSCO", "subtitle":"Av del Tenor Fleta, 67, 50008 Zaragoza, España"},{"id": "0", "lat": "41.6365809", "lon": "-0.8753011", "title": "QUIOSCO", "subtitle":"Av del Tenor Fleta, 122, 50007 Zaragoza, España"},{"id": "0", "lat": "41.6562873", "lon": "-0.8765379", "title": "QUIOSCO", "subtitle":"Zaragoza, España"},{"id": "0", "lat": "41.6407975", "lon": "-0.8845931", "title": "QUIOSCO", "subtitle":"Camino de las Torres, 106, 50007 Zaragoza, España"},{"id": "0", "lat": "41.6399406", "lon": "-0.8859255", "title": "SUPERMERCADO EROSKI", "subtitle":"Camino de las Torres, 109, 50007 Zaragoza, España"},{"id": "0", "lat": "41.6231137", "lon": "-0.8759838", "title": "QUIOSCO", "subtitle":"Calle del Zafiro, 50007 Zaragoza, España"},{"id": "0", "lat": "41.6345218", "lon": "-0.8752803", "title": "QUIOSCO", "subtitle":"Calle de Zaragoza La Vieja, 4, 50007 Zaragoza, España"},{"id": "0", "lat": "41.6337186", "lon": "-0.8752565", "title": "QUIOSCO", "subtitle":"Calle de Zaragoza La Vieja, 25, 50007 Zaragoza, España"},{"id": "0", "lat": "41.6427743", "lon": "-0.882481", "title": "QUIOSCO", "subtitle":"Plaza Albert Schweitzer, 2, 50008 Zaragoza, España"},{"id": "0", "lat": "41.6385596", "lon": "-0.8751489", "title": "Martín Martín", "subtitle":"Calle de Ángel Ganivet, 2, 50008 Zaragoza, España"},{"id": "0", "lat": "41.6430962", "lon": "-0.8848765", "title": "QUIOSCO", "subtitle":"Calle de Bolonia, 8, 50008 Zaragoza, España"},{"id": "0", "lat": "41.6443969", "lon": "-0.8769645", "title": "CAI, URBANA 47", "subtitle":"Av de Cesáreo Alierta, 19, 50008 Zaragoza, España"},{"id": "0", "lat": "41.63786", "lon": "-0.8681484", "title": "CAI, URBANA 67", "subtitle":"Av de Cesáreo Alierta, 113, 50013 Zaragoza, España"},{"id": "0", "lat": "41.6452037", "lon": "-0.8781069", "title": "Martín Martín", "subtitle":"Av de Cesáreo Alierta, 22, 50008 Zaragoza, España"},{"id": "0", "lat": "41.6444673", "lon": "-0.8768004", "title": "QUIOSCO", "subtitle":"Av de Cesáreo Alierta, 17, 50008 Zaragoza, España"},{"id": "0", "lat": "41.6444673", "lon": "-0.8768004", "title": "QUIOSCO", "subtitle":"Av de Cesáreo Alierta, 17, 50008 Zaragoza, España"},{"id": "0", "lat": "41.6446062", "lon": "-0.8771253", "title": "QUIOSCO", "subtitle":"Av de Cesáreo Alierta, 15, 50008 Zaragoza, España"},{"id": "0", "lat": "41.6418684", "lon": "-0.8848412", "title": "QUIOSCO", "subtitle":"Calle del Comandante Santa Pau, 17, 50008 Zaragoza, España"},{"id": "0", "lat": "41.6431059", "lon": "-0.8804487", "title": "QUIOSCO", "subtitle":"Camino de las Torres, 47, 50008 Zaragoza, España"},{"id": "0", "lat": "41.6423414", "lon": "-0.8732846", "title": "QUIOSCO", "subtitle":"Calle de Escultor Félix Burriel, 1, 50008 Zaragoza, España"},{"id": "0", "lat": "41.6435719", "lon": "-0.8757387", "title": "QUIOSCO", "subtitle":"Calle de la Florida, 19, 50008 Zaragoza, España"},{"id": "0", "lat": "41.6452543", "lon": "-0.8792941", "title": "QUIOSCO", "subtitle":"Calle de Francisco de Vitoria, 26, 50008 Zaragoza, España"},{"id": "0", "lat": "41.641489", "lon": "-0.8782392", "title": "QUIOSCO", "subtitle":"50008 Zaragoza, España"},{"id": "0", "lat": "41.6455893", "lon": "-0.8742934", "title": "QUIOSCO", "subtitle":"Calle de Gonzalo de Berceo, 2, 50008 Zaragoza, España"},{"id": "0", "lat": "41.6401232", "lon": "-0.8745949", "title": "QUIOSCO", "subtitle":"Calle de Illueca, 1, 50008 Zaragoza, España"},{"id": "0", "lat": "41.6460174", "lon": "-0.8850591", "title": "CAI, URBANA 18", "subtitle":"Paseo de las Damas, 3, 50008 Zaragoza, España"},{"id": "0", "lat": "41.6435614", "lon": "-0.8827817", "title": "EL ARBOL", "subtitle":"Paseo de las Damas, 33, 50008 Zaragoza, España"},{"id": "0", "lat": "41.6372372", "lon": "-0.8721593", "title": "QUIOSCO", "subtitle":"Calle de Luis Aula, 8, 50008 Zaragoza, España"},{"id": "0", "lat": "41.6402095", "lon": "-0.8808197", "title": "QUIOSCO", "subtitle":"Andador de Luis Puntes, 8, 50008 Zaragoza, España"},{"id": "0", "lat": "41.6651182", "lon": "-0.8893188", "title": "QUIOSCO", "subtitle":"Calle de Mariana Pineda, 18, 50018 Zaragoza, España"},{"id": "0", "lat": "41.6465068", "lon": "-0.8726309", "title": "CAI, URBANA 24", "subtitle":"Calle de Miguel Servet, 50, 50008 Zaragoza, España"},{"id": "0", "lat": "41.6475498", "lon": "-0.8744748", "title": "QUIOSCO", "subtitle":"Calle de Miguel Servet, 26, 50008 Zaragoza, España"},{"id": "0", "lat": "41.641489", "lon": "-0.8782392", "title": "IBERCAJA, OFICINA PRINCIPAL", "subtitle":"50008 Zaragoza, España"},{"id": "0", "lat": "41.6368415", "lon": "-0.8745965", "title": "QUIOSCO", "subtitle":"Camino de Puente del Virrey, 49, 50008 Zaragoza, España"},{"id": "0", "lat": "41.6450448", "lon": "-0.8752788", "title": "SUPERMERCADO EROSKI", "subtitle":"Calle de Reina Fabiola, 28, 50008 Zaragoza, España"},{"id": "0", "lat": "41.6398895", "lon": "-0.8783608", "title": "QUIOSCO", "subtitle":"Paseo de los Rosales, 26, 50008 Zaragoza, España"},{"id": "0", "lat": "41.6387372", "lon": "-0.8752617", "title": "IBERCAJA, URBANA 16", "subtitle":"Av de San José, 115, 50008 Zaragoza, España"},{"id": "0", "lat": "41.6398092", "lon": "-0.8741093", "title": "QUIOSCO", "subtitle":"Av de San José, 70, 50008 Zaragoza, España"},{"id": "0", "lat": "41.6451584", "lon": "-0.8802735", "title": "QUIOSCO", "subtitle":"Calle de San Vicente Mártir, 26, 50008 Zaragoza, España"},{"id": "0", "lat": "41.6463922", "lon": "-0.8726467", "title": "QUIOSCO", "subtitle":"Calle de Miguel Servet, 52, 50008 Zaragoza, España"},{"id": "0", "lat": "41.6376972", "lon": "-0.877069", "title": "CAI, URBANA 7", "subtitle":"Av del Tenor Fleta, 95, 50008 Zaragoza, España"},{"id": "0", "lat": "41.6390334", "lon": "-0.8797691", "title": "QUIOSCO", "subtitle":"Av del Tenor Fleta, 57, 50008 Zaragoza, España"},{"id": "0", "lat": "41.6378234", "lon": "-0.8774294", "title": "QUIOSCO", "subtitle":"Av del Tenor Fleta, 89, 50008 Zaragoza, España"},{"id": "0", "lat": "41.636475", "lon": "-0.9050477", "title": "CAI, URBANA 12", "subtitle":"Calle de Miguel Asín y Palacios, 15, 50009 Zaragoza, España"},{"id": "0", "lat": "41.6370838", "lon": "-0.904652", "title": "IBERCAJA, URBANA 37", "subtitle":"Calle de Miguel Asín y Palacios, 13, 50009 Zaragoza, España"},{"id": "0", "lat": "41.636475", "lon": "-0.9050477", "title": "QUIOSCO", "subtitle":"Calle de Miguel Asín y Palacios, 15, 50009 Zaragoza, España"},{"id": "0", "lat": "41.636475", "lon": "-0.9050477", "title": "QUIOSCO", "subtitle":"Calle de Miguel Asín y Palacios, 15, 50009 Zaragoza, España"},{"id": "0", "lat": "41.6376757", "lon": "-0.9040915", "title": "QUIOSCO", "subtitle":"Calle de Miguel Asín y Palacios, 11, 50009 Zaragoza, España"},{"id": "0", "lat": "41.6428539", "lon": "-0.9108568", "title": "CAI, URBANA 41", "subtitle":"Calle de Castilla, 50009 Zaragoza, España"},{"id": "0", "lat": "41.6317779", "lon": "-0.9096271", "title": "QUIOSCO", "subtitle":"Calle del Centro, 13, 50009 Zaragoza, España"},{"id": "0", "lat": "41.6385768", "lon": "-0.9062453", "title": "SUPERMERCADO EROSKI", "subtitle":"Calle de los Condes de Aragón, 18, 50009 Zaragoza, España"},{"id": "0", "lat": "41.639446", "lon": "-0.9056096", "title": "QUIOSCO", "subtitle":"Calle de los Condes de Aragón, 12, 50009 Zaragoza, España"},{"id": "0", "lat": "41.6442762", "lon": "-0.9131921", "title": "CAI, URBANA 82", "subtitle":"Calle de la Duquesa de Villahermosa, 143, 50009 Zaragoza, España"},{"id": "0", "lat": "41.629688", "lon": "-0.9076842", "title": "IBERCAJA, URBANA 53", "subtitle":"Calle del Embarcadero, 4, 50009 Zaragoza, España"},{"id": "0", "lat": "41.6393853", "lon": "-0.8965711", "title": "EL ARBOL", "subtitle":"Paseo de Don Fernando El Católico, 52, 50009 Zaragoza, España"},{"id": "0", "lat": "41.6393853", "lon": "-0.8965711", "title": "EL ARBOL", "subtitle":"Paseo de Don Fernando El Católico, 52, 50009 Zaragoza, España"},{"id": "0", "lat": "41.6404265", "lon": "-0.8956974", "title": "MULTICAJA, URBANA 50", "subtitle":"Paseo de Don Fernando El Católico, 38, 50009 Zaragoza, España"},{"id": "0", "lat": "41.6392155", "lon": "-0.8967958", "title": "QUIOSCO", "subtitle":"Paseo de Don Fernando El Católico, 56, 50009 Zaragoza, España"},{"id": "0", "lat": "41.6399581", "lon": "-0.896192", "title": "CAI, URBANA 2", "subtitle":"Paseo de Don Fernando El Católico, 42, 50009 Zaragoza, España"},{"id": "0", "lat": "41.6312097", "lon": "-0.9029254", "title": "QUIOSCO", "subtitle":"Ronda Hispanidad, 50009 Zaragoza, España"},{"id": "0", "lat": "41.6332529", "lon": "-0.9067969", "title": "SUPERMERCADO EROSKI", "subtitle":"Vía Hispanidad, 6, 50009 Zaragoza, España"},{"id": "0", "lat": "41.6434759", "lon": "-0.9041027", "title": "QUIOSCO", "subtitle":"Lozano Blesa, Av SAN JUAN BOSCO, 15, 50009 Zaragoza, España"},{"id": "0", "lat": "41.6350453", "lon": "-0.9016283", "title": "Quiosco (Hospital Miguel Servet - Traumatología)", "subtitle":"Paseo de Isabel 'La Católica', 50009 Zaragoza, España"},{"id": "0", "lat": "41.6443404", "lon": "-0.9108426", "title": "SUPERMERCADO EROSKI", "subtitle":"Av de Juan Carlos I, 6, 50009 Zaragoza, España"},{"id": "0", "lat": "41.6438257", "lon": "-0.9121197", "title": "Martín Martín", "subtitle":"Av de Juan Pablo II, 3, 50009 Zaragoza, España"},{"id": "0", "lat": "41.6402964", "lon": "-0.9103526", "title": "Tiendas de conveniencia", "subtitle":"Av de Juan Pablo II, 34, 50009 Zaragoza, España"},{"id": "0", "lat": "41.6300926", "lon": "-0.9080933", "title": "CAI, URBANA 14", "subtitle":"Calle de la Vía, 3, 50009 Zaragoza, España"},{"id": "0", "lat": "41.6309939", "lon": "-0.9081332", "title": "EL ARBOL", "subtitle":"Calle de la Vía, 17, 50009 Zaragoza, España"},{"id": "0", "lat": "41.6299732", "lon": "-0.9079833", "title": "Martín Martín", "subtitle":"Calle de la Vía, 4, 50009 Zaragoza, España"},{"id": "0", "lat": "41.6304715", "lon": "-0.9081339", "title": "QUIOSCO", "subtitle":"Calle de la Vía, 7, 50009 Zaragoza, España"},{"id": "0", "lat": "41.6461811", "lon": "-0.9033104", "title": "QUIOSCO", "subtitle":"Calle de Pedro Lucas Gallego, 58, 50009 Zaragoza, España"},{"id": "0", "lat": "41.640049", "lon": "-0.9032769", "title": "QUIOSCO", "subtitle":"50009 Zaragoza, España"},{"id": "0", "lat": "41.6438827", "lon": "-0.9115138", "title": "QUIOSCO", "subtitle":"Calle de María Guerrero, 39, 50009 Zaragoza, España"},{"id": "0", "lat": "41.640049", "lon": "-0.9032769", "title": "UNIVERSIDAD DE ZARAGOZA", "subtitle":"50009 Zaragoza, España"},{"id": "0", "lat": "41.640049", "lon": "-0.9032769", "title": "QUIOSCO", "subtitle":"50009 Zaragoza, España"},{"id": "0", "lat": "41.6395762", "lon": "-0.9020306", "title": "Martín Martín", "subtitle":"Calle de San Francisco de Borja, 9, 50009 Zaragoza, España"},{"id": "0", "lat": "41.64002", "lon": "-0.9018494", "title": "QUIOSCO", "subtitle":"Calle de San Francisco de Borja, 5, 50009 Zaragoza, España"},{"id": "0", "lat": "41.6479944", "lon": "-0.9083964", "title": "QUIOSCO", "subtitle":"Vía Universitas, 42, 50017 Zaragoza, España"},{"id": "0", "lat": "41.6502926", "lon": "-0.9143659", "title": "QUIOSCO", "subtitle":"Calle de Andrés Vicente, 9, 50017 Zaragoza, España"},{"id": "0", "lat": "41.6509319", "lon": "-0.9123877", "title": "QUIOSCO", "subtitle":"Calle de Antonio Mompeón Motos, 6, 50017 Zaragoza, España"},{"id": "0", "lat": "41.6538094", "lon": "-0.9085139", "title": "QUIOSCO", "subtitle":"Calle de Arias, 20, 50010 Zaragoza, España"},{"id": "0", "lat": "41.6563606", "lon": "-0.9197893", "title": "CAI, URBANA 46", "subtitle":"Calle de Biarritz, 10, 50017 Zaragoza, España"},{"id": "0", "lat": "41.6531422", "lon": "-0.9041534", "title": "Martín Martín", "subtitle":"Paseo de Calanda, 21, 50010 Zaragoza, España"},{"id": "0", "lat": "41.6531422", "lon": "-0.9041534", "title": "MULTICAJA, URBANA 45", "subtitle":"Paseo de Calanda, 21, 50010 Zaragoza, España"},{"id": "0", "lat": "41.6509157", "lon": "-0.9029465", "title": "QUIOSCO", "subtitle":"Paseo de Calanda, 39, 50010 Zaragoza, España"},{"id": "0", "lat": "41.6536905", "lon": "-0.9043649", "title": "QUIOSCO", "subtitle":"Paseo de Calanda, 11, 50010 Zaragoza, España"},{"id": "0", "lat": "41.6562873", "lon": "-0.8765379", "title": "QUIOSCO", "subtitle":"Zaragoza, España"},{"id": "0", "lat": "41.6534565", "lon": "-0.915462", "title": "QUIOSCO", "subtitle":"Calle del Poeta Celso Emilio Ferreiro, 12, 50017 Zaragoza, España"},{"id": "0", "lat": "41.651811", "lon": "-0.8796958", "title": "QUIOSCO", "subtitle":"Calle del Coso, 54, 50001 Zaragoza, España"},{"id": "0", "lat": "41.6493647", "lon": "-0.9049567", "title": "QUIOSCO", "subtitle":"Calle de Daroca, 9, 50017 Zaragoza, España"},{"id": "0", "lat": "41.6523582", "lon": "-0.905728", "title": "QUIOSCO", "subtitle":"Calle de las Delicias, 5, 50010 Zaragoza, España"},{"id": "0", "lat": "41.6533893", "lon": "-0.9011702", "title": "EL ARBOL", "subtitle":"Calle de Luis Pérez Serrano, 3, 50010 Zaragoza, España"},{"id": "0", "lat": "41.6493735", "lon": "-0.899508", "title": "IBERCAJA, URBANA 31", "subtitle":"Calle de la Duquesa de Villahermosa, 2, 50010 Zaragoza, España"},{"id": "0", "lat": "41.6543021", "lon": "-0.8987955", "title": "QUIOSCO", "subtitle":"Calle de Escoriaza y Fabro, 107, 50010 Zaragoza, España"},{"id": "0", "lat": "41.6488986", "lon": "-0.9144315", "title": "QUIOSCO", "subtitle":"Calle del Escultor Palao, 15, 50017 Zaragoza, España"},{"id": "0", "lat": "41.6522093", "lon": "-0.9128631", "title": "QUIOSCO", "subtitle":"Calle de Garcilaso de la Vega, 5, 50017 Zaragoza, España"},{"id": "0", "lat": "41.655145", "lon": "-0.9011943", "title": "QUIOSCO", "subtitle":"Calle del General Don Manuel Lon Laga, 1, 50010 Zaragoza, España"},{"id": "0", "lat": "41.6496267", "lon": "-0.9000359", "title": "QUIOSCO", "subtitle":"Calle de los Hermanos Pinzón, 5, 50010 Zaragoza, España"},{"id": "0", "lat": "41.6524956", "lon": "-0.9013169", "title": "QUIOSCO", "subtitle":"Calle de Inglaterra, 1, 50010 Zaragoza, España"},{"id": "0", "lat": "41.652332", "lon": "-0.9006657", "title": "CAI, URBANA 49", "subtitle":"Calle Italia, 3, 50010 Zaragoza, España"},{"id": "0", "lat": "41.6526358", "lon": "-0.905526", "title": "QUIOSCO", "subtitle":"Calle de Jorge Jordana, 5, 50010 Zaragoza, España"},{"id": "0", "lat": "41.6444385", "lon": "-0.9102279", "title": "QUIOSCO", "subtitle":"Av de Juan Carlos I, 9, 50009 Zaragoza, España"},{"id": "0", "lat": "41.6347598", "lon": "-0.9042807", "title": "QUIOSCO", "subtitle":"Calle de Juan II de Aragón, 5, 50009 Zaragoza, España"},{"id": "0", "lat": "41.6526729", "lon": "-0.9112283", "title": "QUIOSCO", "subtitle":"Calle de Julián Sanz Ibáñez, 5, 50017 Zaragoza, España"},{"id": "0", "lat": "41.6530016", "lon": "-0.913952", "title": "EL ARBOL", "subtitle":"Calle Madres de la Plaza de Mayo, 5, 50017 Zaragoza, España"},{"id": "0", "lat": "41.6518388", "lon": "-0.9112816", "title": "CAI, URBANA 13", "subtitle":"Av de Madrid, 227, 50017 Zaragoza, España"},{"id": "0", "lat": "41.6529728", "lon": "-0.9061403", "title": "IBERCAJA, URBANA 4", "subtitle":"Av de Madrid, 169, 50017 Zaragoza, España"},{"id": "0", "lat": "41.6527935", "lon": "-0.9068802", "title": "Martín Martín", "subtitle":"Av de Madrid, 175, 50017 Zaragoza, España"},{"id": "0", "lat": "41.6507337", "lon": "-0.9181669", "title": "QUIOSCO", "subtitle":"Av de Madrid, 224, 50017 Zaragoza, España"},{"id": "0", "lat": "41.6509005", "lon": "-0.9152784", "title": "QUIOSCO", "subtitle":"Av de Madrid, 273, 50017 Zaragoza, España"},{"id": "0", "lat": "41.6538861", "lon": "-0.9026346", "title": "SUPERMERCADO EROSKI", "subtitle":"Av de Madrid, 135, 50010 Zaragoza, España"},{"id": "0", "lat": "41.6553213", "lon": "-0.9192329", "title": "QUIOSCO", "subtitle":"Calle de Manuel de Falla, 50017 Zaragoza, España"},{"id": "0", "lat": "41.6536357", "lon": "-0.9061028", "title": "QUIOSCO", "subtitle":"Calle de Marcos Zapata, 11, 50010 Zaragoza, España"},{"id": "0", "lat": "41.6547647", "lon": "-0.9033911", "title": "CAI, URBANA 42", "subtitle":"Av de Navarra, 27, 50010 Zaragoza, España"},{"id": "0", "lat": "41.6548167", "lon": "-0.9043632", "title": "CAJALON, URBANA 14", "subtitle":"Av de Navarra, 33, 50010 Zaragoza, España"},{"id": "0", "lat": "41.6547258", "lon": "-0.900895", "title": "QUIOSCO", "subtitle":"Av de Navarra, 2, 50010 Zaragoza, España"},{"id": "0", "lat": "20.5890679", "lon": "-100.3897581", "title": "QUIOSCO", "subtitle":"Ignacio Zaragoza 5, Centro, Santiago de Querétaro, Qt, México"},{"id": "0", "lat": "41.6537699", "lon": "-0.9020843", "title": "QUIOSCO", "subtitle":"50010 Zaragoza, España"},{"id": "0", "lat": "41.6488238", "lon": "-0.9034603", "title": "QUIOSCO", "subtitle":"Calle de Don Pedro de Luna, 91, 50010 Zaragoza, España"},{"id": "0", "lat": "41.654168", "lon": "-0.907748", "title": "QUIOSCO", "subtitle":"Calle de Pedro II El Católico, 20, 50010 Zaragoza, España"},{"id": "0", "lat": "41.6534645", "lon": "-0.916047", "title": "QUIOSCO", "subtitle":"Calle de Ramiro I de Aragón, 14, 50017 Zaragoza, España"},{"id": "0", "lat": "41.6563317", "lon": "-0.9193104", "title": "QUIOSCO", "subtitle":"Calle de Ramón José Sender, 3, 50017 Zaragoza, España"},{"id": "0", "lat": "41.6479379", "lon": "-0.8615425", "title": "QUIOSCO", "subtitle":"Calle de Salvador Minguijón, 50002 Zaragoza, España"},{"id": "0", "lat": "41.6434655", "lon": "-0.8962464", "title": "QUIOSCO", "subtitle":"Calle de San Antonio María Claret, 55, 50005 Zaragoza, España"},{"id": "0", "lat": "41.6512916", "lon": "-0.9038637", "title": "QUIOSCO", "subtitle":"Calle de Antonio Sangenis, 33, 50010 Zaragoza, España"},{"id": "0", "lat": "41.6529579", "lon": "-0.9046766", "title": "QUIOSCO", "subtitle":"Calle de Antonio Sangenis, 10, 50010 Zaragoza, España"},{"id": "0", "lat": "41.6489002", "lon": "-0.8945301", "title": "QUIOSCO", "subtitle":"Calle de Santander, 1, 50010 Zaragoza, España"},{"id": "0", "lat": "41.6485482", "lon": "-0.8978239", "title": "QUIOSCO", "subtitle":"Calle de Tarragona, 32, 50005 Zaragoza, España"},{"id": "0", "lat": "41.6485482", "lon": "-0.8978239", "title": "QUIOSCO", "subtitle":"Calle de Tarragona, 32, 50005 Zaragoza, España"},{"id": "0", "lat": "41.6511385", "lon": "-0.9014952", "title": "QUIOSCO", "subtitle":"Calle de Unceta, 44, 50010 Zaragoza, España"},{"id": "0", "lat": "41.6494535", "lon": "-0.9093873", "title": "QUIOSCO", "subtitle":"Vía Universitas, 55, 50017 Zaragoza, España"},{"id": "0", "lat": "41.6494535", "lon": "-0.9093873", "title": "Quiosco", "subtitle":"Vía Universitas, 55, 50017 Zaragoza, España"},{"id": "0", "lat": "41.6497341", "lon": "-0.8992873", "title": "CAI, URBANA 19", "subtitle":"Calle de Vicente Berdusán, 46, 50010 Zaragoza, España"},{"id": "0", "lat": "41.6527664", "lon": "-0.8978701", "title": "QUIOSCO", "subtitle":"Calle de Vicente Berdusán, 12, 50010 Zaragoza, España"},{"id": "0", "lat": "41.6508356", "lon": "-0.8986859", "title": "QUIOSCO", "subtitle":"Calle de Vicente Berdusán, 30, 50010 Zaragoza, España"},{"id": "0", "lat": "41.6488998", "lon": "-0.9220193", "title": "QUIOSCO", "subtitle":"Calle de Alejandro Oliván, 16, 50011 Zaragoza, España"},{"id": "0", "lat": "41.6516021", "lon": "-0.926163", "title": "CAI, URBANA 20", "subtitle":"Calle de Antonio de Leyva, 65, 50011 Zaragoza, España"},{"id": "0", "lat": "41.6515201", "lon": "-0.9252346", "title": "IBERCAJA, URBANA 11", "subtitle":"Calle de Antonio de Leyva, 49, 50011 Zaragoza, España"},{"id": "0", "lat": "41.6515337", "lon": "-0.9290465", "title": "QUIOSCO", "subtitle":"Calle de Antonio de Leyva, 83, 50011 Zaragoza, España"},{"id": "0", "lat": "41.658661", "lon": "-0.9112", "title": "CAI, URBANA 95", "subtitle":"Estación de Zaragoza-Delicias, 50011 Zaragoza, España"},{"id": "0", "lat": "41.6517206", "lon": "-0.9260405", "title": "QUIOSCO", "subtitle":"Calle de Huesa del Común, 2, 50011 Zaragoza, España"},{"id": "0", "lat": "41.651379", "lon": "-0.9284674", "title": "QUIOSCO", "subtitle":"Calle de Valdés Guzmán, 2, 50011 Zaragoza, España"},{"id": "0", "lat": "41.6515126", "lon": "-0.9207717", "title": "QUIOSCO", "subtitle":"Calle de Madre Barat, 1, 50011 Zaragoza, España"},{"id": "0", "lat": "41.6486557", "lon": "-0.920996", "title": "CAJALON, URBANA 16", "subtitle":"Calle del Mosén José Bosqued, 5, 50011 Zaragoza, España"},{"id": "0", "lat": "41.6559384", "lon": "-0.9094057", "title": "ESTACIÓN INTERMODAL DELICIAS", "subtitle":"Av de Navarra, 80, 50011 Zaragoza, España"},{"id": "0", "lat": "41.6587535", "lon": "-0.9410584", "title": "CAJALON, URBANA 8", "subtitle":"Camino del Pilón, 120, 50011 Zaragoza, España"},{"id": "0", "lat": "41.6587017", "lon": "-0.9403599", "title": "IBERCAJA, URBANA 89", "subtitle":"Camino del Pilón, 131, 50011 Zaragoza, España"},{"id": "0", "lat": "41.6647403", "lon": "-0.9274689", "title": "QUIOSCO", "subtitle":"Urbanización Torres de San Lamberto, 7, 50011 Zaragoza, España"},{"id": "0", "lat": "41.6463896", "lon": "-0.9181277", "title": "QUIOSCO", "subtitle":"Plaza del Amazonas, 50012 Zaragoza, España"},{"id": "0", "lat": "41.6335991", "lon": "-0.9443766", "title": "QUIOSCO", "subtitle":"Calle Beethoven, 42, 50012 Zaragoza, España"},{"id": "0", "lat": "41.6562873", "lon": "-0.8765379", "title": "QUIOSCO", "subtitle":"Zaragoza, España"},{"id": "0", "lat": "41.6272198", "lon": "-0.9294978", "title": "QUIOSCO", "subtitle":"Av de la Ilustración, 14, 50012 Zaragoza, España"},{"id": "0", "lat": "41.6562873", "lon": "-0.8765379", "title": "Martín Martín", "subtitle":"Zaragoza, España"},{"id": "0", "lat": "41.629338", "lon": "-0.9325008", "title": "QUIOSCO", "subtitle":"Av de la Ilustración, 50012 Zaragoza, España"},{"id": "0", "lat": "41.6530184", "lon": "-0.9063134", "title": "QUIOSCO C.C.Alcampo", "subtitle":"Av de Madrid, Zaragoza, España"},{"id": "0", "lat": "41.6386014", "lon": "-0.9323772", "title": "QUIOSCO", "subtitle":"Calle de Marte, 54, 50012 Zaragoza, España"},{"id": "0", "lat": "41.637387", "lon": "-0.944502", "title": "CAI, URBANA 99", "subtitle":"Calle de Maurice Ravel, 50012 Zaragoza, España"},{"id": "0", "lat": "41.6392993", "lon": "-0.9300018", "title": "CAI, URBANA 60", "subtitle":"Calle de Obispo Peralta, 11, 50012 Zaragoza, España"},{"id": "0", "lat": "41.6399291", "lon": "-0.9305411", "title": "IBERCAJA, URBANA 42", "subtitle":"Calle de Rigel, 1, 50012 Zaragoza, España"},{"id": "0", "lat": "41.6274533", "lon": "-0.912089", "title": "PANADERIA Las Nieves", "subtitle":"Calle Riglos, 12, 50012 Zaragoza, España"},{"id": "0", "lat": "41.6404653", "lon": "-0.9290184", "title": "QUIOSCO", "subtitle":"Av de Valdefierro, 47, 50012 Zaragoza, España"},{"id": "0", "lat": "41.6393559", "lon": "-0.8690253", "title": "QUIOSCO", "subtitle":"Camino de Cabaldos, 76, 50013 Zaragoza, España"},{"id": "0", "lat": "41.6390831", "lon": "-0.8690217", "title": "QUIOSCO", "subtitle":"Camino de Cabaldos, 78, 50013 Zaragoza, España"},{"id": "0", "lat": "41.6373706", "lon": "-0.8693691", "title": "QUIOSCO", "subtitle":"Camino de Cabaldos, 88, 50013 Zaragoza, España"},{"id": "0", "lat": "41.6394162", "lon": "-0.8703002", "title": "QUIOSCO", "subtitle":"Calle de Emilio Castelar, 50, 50013 Zaragoza, España"},{"id": "0", "lat": "41.6220096", "lon": "-0.8489843", "title": "QUIOSCO", "subtitle":"Carretera Castellón, 44, 50013 Zaragoza, España"},{"id": "0", "lat": "41.6383892", "lon": "-0.870133", "title": "QUIOSCO", "subtitle":"Av de Cesáreo Alierta, 96, 50013 Zaragoza, España"},{"id": "0", "lat": "41.6428178", "lon": "-0.8755255", "title": "QUIOSCO", "subtitle":"Av de Cesáreo Alierta, 33, 50008 Zaragoza, España"},{"id": "0", "lat": "41.6435602", "lon": "-0.8666614", "title": "EL ARBOL", "subtitle":"Calle de Florentino Ballesteros, 19, 50013 Zaragoza, España"},{"id": "0", "lat": "41.6424676", "lon": "-0.8694924", "title": "CAI, URBANA 21", "subtitle":"Calle de Juana Ibarbourou, 6, 50013 Zaragoza, España"},{"id": "0", "lat": "41.6417421", "lon": "-0.8701492", "title": "Martín Martín", "subtitle":"Calle de Juana Ibarbourou, 20, 50013 Zaragoza, España"},{"id": "0", "lat": "41.6427056", "lon": "-0.8688606", "title": "IBERCAJA, URBANA 30", "subtitle":"Calle de Miguel Servet, 118, 50013 Zaragoza, España"},{"id": "0", "lat": "41.6429195", "lon": "-0.8689105", "title": "QUIOSCO", "subtitle":"Calle de Miguel Servet, 67, 50013 Zaragoza, España"},{"id": "0", "lat": "41.6451437", "lon": "-0.871006", "title": "QUIOSCO", "subtitle":"Calle de Monasterio de Samos, 40, 50013 Zaragoza, España"},{"id": "0", "lat": "41.6429754", "lon": "-0.8723123", "title": "QUIOSCO", "subtitle":"Plaza de la Reina Sofía, 3, 50013 Zaragoza, España"},{"id": "0", "lat": "41.6411147", "lon": "-0.8734245", "title": "QUIOSCO", "subtitle":"Av de San José, 77, 50013 Zaragoza, España"},{"id": "0", "lat": "41.6412172", "lon": "-0.8711829", "title": "QUIOSCO", "subtitle":"Calle de San Luis de Francia, 13, 50013 Zaragoza, España"},{"id": "0", "lat": "41.6433269", "lon": "-0.8718758", "title": "MULTICAJA, URBANA 46", "subtitle":"Calle del Santuario de Cabañas, 1, 50013 Zaragoza, España"},{"id": "0", "lat": "41.6410795", "lon": "-0.8673947", "title": "CENTRO COMERCIAL UTRILLAS PLAZA", "subtitle":"Plaza de Utrillas, 6, 50013 Zaragoza, España"},{"id": "0", "lat": "41.6586438", "lon": "-0.8640499", "title": "QUIOSCO", "subtitle":"Calle de Aguarón, 22, 50014 Zaragoza, España"},{"id": "0", "lat": "41.656828", "lon": "-0.8685594", "title": "CAI, URBANA 91", "subtitle":"Calle de Alfonso Solans Serrano, 3, 50014 Zaragoza, España"},{"id": "0", "lat": "41.6581431", "lon": "-0.8590542", "title": "CAI, URBANA 81", "subtitle":"Calle de Balbino Orensanz, 1, 50014 Zaragoza, España"},{"id": "0", "lat": "41.6581431", "lon": "-0.8590542", "title": "QUIOSCO", "subtitle":"Calle de Balbino Orensanz, 3, 50014 Zaragoza, España"},{"id": "0", "lat": "41.6706516", "lon": "-0.8839897", "title": "QUIOSCO", "subtitle":"Calle del Poeta Blas de Otero, 14, 50018 Zaragoza, España"},{"id": "0", "lat": "41.6574308", "lon": "-0.868724", "title": "QUIOSCO", "subtitle":"Camino del Vado, 4, 50014 Zaragoza, España"},{"id": "0", "lat": "41.670112", "lon": "-0.8464699", "title": "CAI, URBANA 80", "subtitle":"Av Cataluña, 289, 50014 Zaragoza, España"},{"id": "0", "lat": "41.6604205", "lon": "-0.8692183", "title": "EL ARBOL", "subtitle":"Av Cataluña, 25, 50014 Zaragoza, España"},{"id": "0", "lat": "41.6624445", "lon": "-0.8640044", "title": "IBERCAJA, URBANA 32", "subtitle":"Av Cataluña, 92, 50014 Zaragoza, España"},{"id": "0", "lat": "41.663893", "lon": "-0.8605856", "title": "MULTICAJA, URBANA 55", "subtitle":"Av Cataluña, 132, 50014 Zaragoza, España"},{"id": "0", "lat": "41.6638908", "lon": "-0.8604562", "title": "QUIOSCO", "subtitle":"Av Cataluña, 134, 50014 Zaragoza, España"},{"id": "0", "lat": "41.6693846", "lon": "-0.8476561", "title": "QUIOSCO", "subtitle":"Av Cataluña, 298, 50014 Zaragoza, España"},{"id": "0", "lat": "41.6703054", "lon": "-0.8455302", "title": "SUPERMERCADO EROSKI", "subtitle":"Av Cataluña, 293, 50014 Zaragoza, España"},{"id": "0", "lat": "41.7314623", "lon": "-1.4628042", "title": "QUIOSCO", "subtitle":"50014 Zaragoza, España"},{"id": "0", "lat": "41.6396821", "lon": "-0.9308259", "title": "QUIOSCO", "subtitle":"Calle de Federico Ozanam, 4, 50012 Zaragoza, España"},{"id": "0", "lat": "41.6635042", "lon": "-0.8615319", "title": "QUIOSCO", "subtitle":"Calle de Felisa Gale, 2, 50014 Zaragoza, España"},{"id": "0", "lat": "41.6590507", "lon": "-0.865607", "title": "QUIOSCO", "subtitle":"Calle de Fuendejalón, 50014 Zaragoza, España"},{"id": "0", "lat": "41.6580095", "lon": "-0.8709118", "title": "QUIOSCO", "subtitle":"Calle de Jesús, 28, 50014 Zaragoza, España"},{"id": "0", "lat": "41.6609113", "lon": "-0.8658698", "title": "Martín Martín", "subtitle":"Calle de José Oto, 44, 50014 Zaragoza, España"},{"id": "0", "lat": "41.6621361", "lon": "-0.8628198", "title": "QUIOSCO", "subtitle":"Calle de José Oto, 26, 50014 Zaragoza, España"},{"id": "0", "lat": "41.660624", "lon": "-0.8662682", "title": "Tiendas de conveniencia", "subtitle":"Calle de José Oto, 63, 50014 Zaragoza, España"},{"id": "0", "lat": "41.6616456", "lon": "-0.8574299", "title": "QUIOSCO", "subtitle":"Av de la Jota, 50, 50014 Zaragoza, España"},{"id": "0", "lat": "41.6607285", "lon": "-0.8638105", "title": "CAI, URBANA 54", "subtitle":"Calle del Marqués de la Cadena, 40, 50014 Zaragoza, España"},{"id": "0", "lat": "41.6608629", "lon": "-0.8638725", "title": "SUPERMERCADO EROSKI", "subtitle":"Calle del Marqués de la Cadena, 44, 50014 Zaragoza, España"},{"id": "0", "lat": "41.6561254", "lon": "-0.8569285", "title": "QUIOSCO", "subtitle":"Calle de Matías Maluenda, 50014 Zaragoza, España"},{"id": "0", "lat": "41.6538274", "lon": "-0.8576146", "title": "QUIOSKO SUPERBIEN", "subtitle":"Calle Nobleza Baturra, 17, 50014 Zaragoza, España"},{"id": "0", "lat": "41.6538274", "lon": "-0.8576146", "title": "SUPERBIEN", "subtitle":"Calle Nobleza Baturra, 17, 50014 Zaragoza, España"},{"id": "0", "lat": "41.6593007", "lon": "-0.8962719", "title": "QUIOSCO", "subtitle":"Av de Pablo Gargallo, 23, 50003 Zaragoza, España"},{"id": "0", "lat": "41.6622765", "lon": "-0.8633384", "title": "EL ARBOL", "subtitle":"Calle de Pascuala Perie, 1, 50014 Zaragoza, España"},{"id": "0", "lat": "41.6617124", "lon": "-0.8630383", "title": "Martín Martín", "subtitle":"Calle de Pascuala Perie, 10, 50014 Zaragoza, España"},{"id": "0", "lat": "41.6852028", "lon": "-0.8651303", "title": "QUIOSCO", "subtitle":"50015 Zaragoza, España"},{"id": "0", "lat": "41.675219", "lon": "-0.8872581", "title": "QUIOSCO", "subtitle":"Calle Cineasta Carlos Saura, 16, 50018 Zaragoza, España"},{"id": "0", "lat": "41.6702165", "lon": "-0.8917252", "title": "QUIOSCO", "subtitle":"Calle Concepción Sáiz de Otero, 8, 50018 Zaragoza, España"},{"id": "0", "lat": "41.6836668", "lon": "-0.8711608", "title": "CAI, URBANA 89", "subtitle":"Calle del Globo, 1, 50015 Zaragoza, España"},{"id": "0", "lat": "41.6837277", "lon": "-0.8724619", "title": "QUIOSCO", "subtitle":"Calle del Globo, 8, 50015 Zaragoza, España"},{"id": "0", "lat": "41.65926", "lon": "-0.8768036", "title": "QUIOSCO", "subtitle":"Calle de García Arista, 14, 50015 Zaragoza, España"},{"id": "0", "lat": "41.6692548", "lon": "-0.8775437", "title": "QUIOSCO", "subtitle":"Calle Isla de Gran Canaria, 50015 Zaragoza, España"},{"id": "0", "lat": "41.7016241", "lon": "-0.8665015", "title": "QUIOSCO BRIGADA CABALLERIA U", "subtitle":"Carretera de Huesca, 50015 Zaragoza, España"},{"id": "0", "lat": "41.6715492", "lon": "-0.8846656", "title": "QUIOSCO", "subtitle":"Calle de Ildefonso Manuel Gil, 28, 50018 Zaragoza, España"},{"id": "0", "lat": "41.6504171", "lon": "-0.8826701", "title": "QUIOSCO", "subtitle":"Paseo de la Independencia, 50004 Zaragoza, España"},{"id": "0", "lat": "41.6682052", "lon": "-0.885198", "title": "QUIOSCO", "subtitle":"Calle de Jorge Guillén, 14, 50018 Zaragoza, España"},{"id": "0", "lat": "41.6612318", "lon": "-0.8989526", "title": "QUIOSCO", "subtitle":"Calle de Almunia de Doña Godina, 13, 50003 Zaragoza, España"},{"id": "0", "lat": "41.6868107", "lon": "-0.8751046", "title": "QUIOSCO", "subtitle":"Av de las Majas de Goya, 17, 50018 Zaragoza, España"},{"id": "0", "lat": "41.6686205", "lon": "-0.8920274", "title": "QUIOSCO", "subtitle":"Calle de María de Echarri, 2, 50018 Zaragoza, España"},{"id": "0", "lat": "41.6649254", "lon": "-0.8844626", "title": "QUIOSCO", "subtitle":"Calle de la Poetisa María Zambrano, 10, 50018 Zaragoza, España"},{"id": "0", "lat": "41.6651182", "lon": "-0.8893188", "title": "QUIOSCO Estanco", "subtitle":"Calle de Mariana Pineda, 18, 50018 Zaragoza, España"},{"id": "0", "lat": "41.6722347", "lon": "-0.8726912", "title": "SUPERBIEN", "subtitle":"Calle de Monte Perdido, 22, 50015 Zaragoza, España"},{"id": "0", "lat": "41.6608591", "lon": "-0.8780169", "title": "QUIOSCO", "subtitle":"Calle de Mosén Domingo Agudo, 21, 50015 Zaragoza, España"},{"id": "0", "lat": "41.6773987", "lon": "-0.8856119", "title": "QUIOSCO", "subtitle":"Calle de Pablo Iglesias, 25, 50018 Zaragoza, España"},{"id": "0", "lat": "41.6610937", "lon": "-0.8744413", "title": "SUPERMERCADO EROSKI", "subtitle":"Calle de Mariano Pano y Ruata, 15, 50015 Zaragoza, España"},{"id": "0", "lat": "41.6684831", "lon": "-0.8756732", "title": "QUIOSCO", "subtitle":"Calle del Pantano de Bubal, 4, 50015 Zaragoza, España"},{"id": "0", "lat": "41.6852028", "lon": "-0.8651303", "title": "QUIOSCO", "subtitle":"50015 Zaragoza, España"},{"id": "0", "lat": "41.6697007", "lon": "-0.8926579", "title": "SUPERMERCADO EROSKI", "subtitle":"Calle Concepción Sáiz de Otero, 50018 Zaragoza, España"},{"id": "0", "lat": "41.6693323", "lon": "-0.8763994", "title": "CAI, URBANA 72", "subtitle":"Av Salvador Allende, 14, 50015 Zaragoza, España"},{"id": "0", "lat": "41.6757126", "lon": "-0.8768139", "title": "CAI, URBANA 79", "subtitle":"Av Salvador Allende, 75, 50015 Zaragoza, España"},{"id": "0", "lat": "41.6694305", "lon": "-0.876649", "title": "EL ARBOL", "subtitle":"Av Salvador Allende, 20, 50015 Zaragoza, España"},{"id": "0", "lat": "41.6694305", "lon": "-0.876649", "title": "EL ARBOL", "subtitle":"Av Salvador Allende, 20, 50015 Zaragoza, España"},{"id": "0", "lat": "41.6689534", "lon": "-0.8769161", "title": "Martín Martín", "subtitle":"Av Salvador Allende, 17, 50015 Zaragoza, España"},{"id": "0", "lat": "41.6741581", "lon": "-0.8775373", "title": "QUIOSCO", "subtitle":"Av Salvador Allende, 57, 50015 Zaragoza, España"},{"id": "0", "lat": "41.6714608", "lon": "-0.8770338", "title": "QUIOSCO", "subtitle":"Av Salvador Allende, 41, 50015 Zaragoza, España"},{"id": "0", "lat": "41.6734389", "lon": "-0.877448", "title": "QUIOSCO", "subtitle":"Av Salvador Allende, 98, 50015 Zaragoza, España"},{"id": "0", "lat": "41.6607327", "lon": "-0.8765693", "title": "QUIOSCO", "subtitle":"Plaza de San Gregorio, 3, 50015 Zaragoza, España"},{"id": "0", "lat": "41.6766205", "lon": "-0.8710709", "title": "IBERCAJA, URBANA 39", "subtitle":"Av San Juan de la Peña, 190, 50015 Zaragoza, España"},{"id": "0", "lat": "41.6767317", "lon": "-0.870968", "title": "QUIOSCO", "subtitle":"Av San Juan de la Peña, 194, 50015 Zaragoza, España"},{"id": "0", "lat": "41.6710708", "lon": "-0.8715208", "title": "QUIOSCO", "subtitle":"Av San Juan de la Peña, 129, 50015 Zaragoza, España"},{"id": "0", "lat": "41.6605131", "lon": "-0.8734891", "title": "IBERCAJA, URBANA 23", "subtitle":"Calle de Sobrarbe, 36, 50015 Zaragoza, España"},{"id": "0", "lat": "41.6604382", "lon": "-0.8738396", "title": "QUIOSCO", "subtitle":"Calle de Sobrarbe, 55, 50015 Zaragoza, España"},{"id": "0", "lat": "41.6719152", "lon": "-0.8716746", "title": "CAI, URBANA 36", "subtitle":"Calle del Valle de Arán, 1, 50015 Zaragoza, España"},{"id": "0", "lat": "41.6638625", "lon": "-0.8728117", "title": "QUIOSCO", "subtitle":"Calle del Valle de Gistaín, 2, 50015 Zaragoza, España"},{"id": "0", "lat": "41.6614914", "lon": "-0.8728628", "title": "CAI, URBANA 75", "subtitle":"Calle del Valle de Zuriza, 19, 50015 Zaragoza, España"},{"id": "0", "lat": "41.6614965", "lon": "-0.873425", "title": "QUIOSCO", "subtitle":"Calle del Valle de Zuriza, 20, 50015 Zaragoza, España"},{"id": "0", "lat": "41.6607294", "lon": "-0.8760397", "title": "MULTICAJA, URBANA 51", "subtitle":"Calle de Pedro Villacampa, 50, 50015 Zaragoza, España"},{"id": "0", "lat": "41.6687309", "lon": "-0.8250745", "title": "QUIOSCO", "subtitle":"Calle de Serrano Ostariz, 50016 Zaragoza, España"},{"id": "0", "lat": "41.6669486", "lon": "-0.8294658", "title": "CAJALON, URBANA 11", "subtitle":"Av de Santa Isabel, 137, 50016 Zaragoza, España"},{"id": "0", "lat": "41.6670156", "lon": "-0.8323842", "title": "IBERCAJA, OF. PPAL. SANTA ISABEL", "subtitle":"Av de Santa Isabel, 76, 50016 Zaragoza, España"},{"id": "0", "lat": "41.6673263", "lon": "-0.8309359", "title": "CAI, URBANA 29", "subtitle":"Plaza de Serrano Berges, 50016 Zaragoza, España"},{"id": "0", "lat": "41.6488181", "lon": "-0.9136774", "title": "SUPERMERCADO EROSKI", "subtitle":"Calle de Andrés Vicente, 25, 50017 Zaragoza, España"},{"id": "0", "lat": "41.6463946", "lon": "-0.9136752", "title": "QUIOSCO", "subtitle":"Calle de Cañizar del Olivar, 1, 50017 Zaragoza, España"},{"id": "0", "lat": "41.1656609", "lon": "-1.4966619", "title": "QUIOSCO", "subtitle":"50017 Zaragoza, España"},{"id": "0", "lat": "41.6495953", "lon": "-0.9075792", "title": "QUIOSCO", "subtitle":"Calle de Daroca, 55, 50017 Zaragoza, España"},{"id": "0", "lat": "41.64966", "lon": "-0.9082609", "title": "QUIOSCO", "subtitle":"Calle de Daroca, 69, 50017 Zaragoza, España"},{"id": "0", "lat": "41.648671", "lon": "-0.9040523", "title": "CAI, URBANA 16", "subtitle":"Calle de las Delicias, 93, 50010 Zaragoza, España"},{"id": "0", "lat": "41.6499656", "lon": "-0.9159459", "title": "QUIOSCO", "subtitle":"Calle de Fray Juan Regla, 37, 50017 Zaragoza, España"},{"id": "0", "lat": "41.6562873", "lon": "-0.8765379", "title": "QUIOSCO", "subtitle":"Zaragoza, España"},{"id": "0", "lat": "41.6476082", "lon": "-0.9050867", "title": "QUIOSCO", "subtitle":"Calle de Fuentes de Ebro, 1, 50017 Zaragoza, España"},{"id": "0", "lat": "41.6481181", "lon": "-0.9158242", "title": "QUIOSCO", "subtitle":"Calle de Demetrio Galán Bergua, 24, 50017 Zaragoza, España"},{"id": "0", "lat": "41.6567233", "lon": "-0.9210494", "title": "QUIOSCO", "subtitle":"Vía Hispanidad, 110, 50017 Zaragoza, España"},{"id": "0", "lat": "41.6507662", "lon": "-0.9160745", "title": "CAI, URBANA 86", "subtitle":"Av de Madrid, 283, 50017 Zaragoza, España"},{"id": "0", "lat": "41.6509385", "lon": "-0.9157918", "title": "IBERCAJA, URBANA 18", "subtitle":"Av de Madrid, 204, 50017 Zaragoza, España"},{"id": "0", "lat": "41.6513966", "lon": "-0.9133577", "title": "Martín Martín", "subtitle":"Av de Madrid, 251, 50017 Zaragoza, España"},{"id": "0", "lat": "41.6507293", "lon": "-0.912309", "title": "QUIOSCO", "subtitle":"Calle de Antonio Mompeón Motos, 8, 50017 Zaragoza, España"},{"id": "0", "lat": "41.6509319", "lon": "-0.9123877", "title": "SUPERMERCADO EROSKI", "subtitle":"Calle de Antonio Mompeón Motos, 6, 50017 Zaragoza, España"},{"id": "0", "lat": "41.1656609", "lon": "-1.4966619", "title": "CAI, URBANA 28", "subtitle":"50017 Zaragoza, España"},{"id": "0", "lat": "41.6549471", "lon": "-0.9180074", "title": "MULTICAJA, URBANA 54", "subtitle":"Calle del Poeta Miguel Labordeta, 45, 50017 Zaragoza, España"},{"id": "0", "lat": "41.652759", "lon": "-0.9103386", "title": "QUIOSCO", "subtitle":"Calle Rioja, 6, 50017 Zaragoza, España"},{"id": "0", "lat": "41.6502468", "lon": "-0.9092922", "title": "QUIOSCO", "subtitle":"Vía Universitas, 58, 50017 Zaragoza, España"},{"id": "0", "lat": "41.6511636", "lon": "-0.9097444", "title": "QUIOSCO", "subtitle":"Vía Universitas, 64, 50017 Zaragoza, España"},{"id": "0", "lat": "41.651687", "lon": "-0.9104017", "title": "QUIOSCO", "subtitle":"Vía Universitas, 81, 50017 Zaragoza, España"},{"id": "0", "lat": "41.6759893", "lon": "-0.8852739", "title": "EL ARBOL", "subtitle":"Calle Cineasta Adolfo Aznar, 50018 Zaragoza, España"},{"id": "0", "lat": "41.6759893", "lon": "-0.8852739", "title": "EL ARBOL", "subtitle":"Calle Cineasta Adolfo Aznar, 50018 Zaragoza, España"},{"id": "0", "lat": "41.6771568", "lon": "-0.8917352", "title": "QUIOSCO", "subtitle":"Calle de Alejandro Casona, 9, 50018 Zaragoza, España"},{"id": "0", "lat": "41.6562873", "lon": "-0.8765379", "title": "QUIOSCO", "subtitle":"Zaragoza, España"},{"id": "0", "lat": "41.6715396", "lon": "-0.8861802", "title": "MULTICAJA, URBANA 42", "subtitle":"Calle de Averroes, 50018 Zaragoza, España"},{"id": "0", "lat": "41.6753976", "lon": "-0.8885477", "title": "QUIOSCO Estanco", "subtitle":"Calle Cineasta Carlos Saura, 50018 Zaragoza, España"},{"id": "0", "lat": "41.6690395", "lon": "-0.8900373", "title": "CAI, URBANA 70", "subtitle":"Centro Comercial Grancasa, Calle de Gertrudis Gómez de Avellaneda, 35, 50018 Zaragoza, España"},{"id": "0", "lat": "41.6690395", "lon": "-0.8900373", "title": "CAI, URBANA 70 (2)", "subtitle":"Centro Comercial Grancasa, Calle de Gertrudis Gómez de Avellaneda, 35, 50018 Zaragoza, España"},{"id": "0", "lat": "41.6704793", "lon": "-0.8939778", "title": "QUIOSCO", "subtitle":"Calle de Emilia Pardo Bazán, 21, 50018 Zaragoza, España"},{"id": "0", "lat": "41.6881773", "lon": "-0.8751031", "title": "QUIOSCO", "subtitle":"Calle de Eugenio Lucas, 1, 50018 Zaragoza, España"},{"id": "0", "lat": "41.6704374", "lon": "-0.8907553", "title": "IBERCAJA, URBANA 80", "subtitle":"Calle de Gertrudis Gómez de Avellaneda, 77, 50018 Zaragoza, España"},{"id": "0", "lat": "41.6704374", "lon": "-0.8907553", "title": "CAI, URBANA 68", "subtitle":"Calle de Gertrudis Gómez de Avellaneda, 83, 50018 Zaragoza, España"},{"id": "0", "lat": "41.692467", "lon": "-0.8611487", "title": "QUIOSCO", "subtitle":"Royo Villanova, Av SAN GREGORIO, 30, 50015 Zaragoza, España"},{"id": "0", "lat": "41.6715203", "lon": "-0.8883464", "title": "Quiosco", "subtitle":"Calle de Ildefonso Manuel Gil, 4, 50018 Zaragoza, España"},{"id": "0", "lat": "41.6682166", "lon": "-0.8869843", "title": "SUPERMERCADO EROSKI", "subtitle":"Calle de Jorge Guillén, 15, 50018 Zaragoza, España"},{"id": "0", "lat": "41.6689592", "lon": "-0.8863604", "title": "QUIOSCO", "subtitle":"Calle del Poeta Jorge Manrique, 4, 50018 Zaragoza, España"},{"id": "0", "lat": "41.6753517", "lon": "-0.8844409", "title": "QUIOSCO", "subtitle":"Calle de Cineasta José Luis Borau, 5, 50018 Zaragoza, España"},{"id": "0", "lat": "41.6746357", "lon": "-0.8866827", "title": "QUIOSCO", "subtitle":"Calle de Julio García Condoy, 20, 50018 Zaragoza, España"},{"id": "0", "lat": "41.6602309", "lon": "-0.9331971", "title": "QUIOSCO  Cinebank", "subtitle":"Plaza Lagos Azules, 7, 50011 Zaragoza, España"},{"id": "0", "lat": "41.6760587", "lon": "-0.8909789", "title": "Martín Martín", "subtitle":"Calle de Luis Legaz Lacambra, 4, 50018 Zaragoza, España"},{"id": "0", "lat": "41.6868107", "lon": "-0.8751046", "title": "CAI, URBANA 96", "subtitle":"Av de las Majas de Goya, 13, 50018 Zaragoza, España"},{"id": "0", "lat": "41.6868107", "lon": "-0.8751046", "title": "IBERCAJA, URBANA 90", "subtitle":"Av de las Majas de Goya, 25, 50018 Zaragoza, España"},{"id": "0", "lat": "41.6781697", "lon": "-0.892449", "title": "SUPERBIEN", "subtitle":"Calle de Margarita Xirgú, 14, 50018 Zaragoza, España"},{"id": "0", "lat": "41.6643376", "lon": "-0.8838921", "title": "CAI, URBANA 34", "subtitle":"Calle de la Poetisa María Zambrano, 2, 50018 Zaragoza, España"},{"id": "0", "lat": "41.6720983", "lon": "-0.8893894", "title": "Martín Martín", "subtitle":"Calle de la Poetisa María Zambrano, 42, 50018 Zaragoza, España"},{"id": "0", "lat": "41.6717738", "lon": "-0.8901329", "title": "DECATHLON EN C.COMERCIAL GRANCASA", "subtitle":"Calle María Zambrano, 50018 Zaragoza, España"},{"id": "0", "lat": "41.8163055", "lon": "-0.9629523", "title": "Martín Martín", "subtitle":"50018 Zaragoza, España"},{"id": "0", "lat": "41.66695", "lon": "-0.8917589", "title": "EL ARBOL", "subtitle":"Calle de María Zayas y Sotomayor, 9, 50018 Zaragoza, España"},{"id": "0", "lat": "41.66695", "lon": "-0.8917589", "title": "EL ARBOL", "subtitle":"Calle de María Zayas y Sotomayor, 9, 50018 Zaragoza, España"},{"id": "0", "lat": "41.6701237", "lon": "-0.8847577", "title": "EL ARBOL", "subtitle":"Calle de Pablo Neruda, 20, 50018 Zaragoza, España"},{"id": "0", "lat": "41.6701237", "lon": "-0.8847577", "title": "Martín Martín", "subtitle":"Calle de Pablo Neruda, 20, 50018 Zaragoza, España"},{"id": "0", "lat": "41.8163055", "lon": "-0.9629523", "title": "QUIOSCO", "subtitle":"50018 Zaragoza, España"},{"id": "0", "lat": "41.6737639", "lon": "-0.8893583", "title": "IBERCAJA, URBANA 64", "subtitle":"Calle de la Poetisa María Zambrano, 58, 50018 Zaragoza, España"},{"id": "0", "lat": "41.8163055", "lon": "-0.9629523", "title": "UNIVERSIDAD DE ZARAGOZA", "subtitle":"50018 Zaragoza, España"},{"id": "0", "lat": "41.8163055", "lon": "-0.9629523", "title": "UNIVERSIDAD DE ZARAGOZA", "subtitle":"50018 Zaragoza, España"},{"id": "0", "lat": "41.8163055", "lon": "-0.9629523", "title": "QUIOSCO", "subtitle":"50018 Zaragoza, España"},{"id": "0", "lat": "41.6199478", "lon": "-0.9223636", "title": "QUIOSCO", "subtitle":"50019 Zaragoza, España"},{"id": "0", "lat": "41.6658893", "lon": "-0.8226907", "title": "QUIOSCO", "subtitle":"Calle de la Concordia, 50016 Zaragoza, España"},{"id": "0", "lat": "41.6678504", "lon": "-0.825462", "title": "QUIOSCO", "subtitle":"Calle de Gaspar Torrente, 62, 50016 Zaragoza, España"},{"id": "0", "lat": "41.6562873", "lon": "-0.8765379", "title": "QUIOSCO", "subtitle":"Zaragoza, España"},{"id": "0", "lat": "41.6671118", "lon": "-0.833321", "title": "QUIOSCO", "subtitle":"Av de Santa Isabel, 66, 50016 Zaragoza, España"},{"id": "0", "lat": "41.6704619", "lon": "-0.8270964", "title": "QUIOSCO", "subtitle":"Calle de Santa Nunila, 9, 50016 Zaragoza, España"},{"id": "0", "lat": "41.684651", "lon": "-0.8288066", "title": "QUIOSCO", "subtitle":"Av de la Montañana, 254, 50059 Zaragoza, España"},{"id": "0", "lat": "41.6528026", "lon": "-0.891992", "title": "D.G.A. EDIFICIO PIGNATELLI", "subtitle":"Paseo de María Agustín, 36, 50004 Zaragoza, España"},{"id": "0", "lat": "41.7677673", "lon": "-0.8262746", "title": "AYUNTAMIENTO (EDIF. SEMINARIO)", "subtitle":"Calle de la Ronda de la Hispanidad, 20, 50830 Villanueva de Gállego, España"},{"id": "0", "lat": "41.7043343", "lon": "-0.9653412", "title": "QUIOSCO", "subtitle":"50120 Zaragoza, España"},{"id": "0", "lat": "41.7009795", "lon": "-0.9700959", "title": "QUIOSCO", "subtitle":"Calle de San Miguel, 2, 50120 Zaragoza, España"},{"id": "0", "lat": "41.4953897", "lon": "-0.6537675", "title": "QUIOSCO", "subtitle":"Calle Mayor, 18, 50741 Fuentes de Ebro, España"},{"id": "0", "lat": "41.7988405", "lon": "-0.6108729", "title": "QUIOSCO", "subtitle":"Calle de la Iglesia, 50160 Leciñena, España"},{"id": "0", "lat": "41.6853284", "lon": "-0.7734904", "title": "QUIOSCO Pastelería", "subtitle":"Calle de la Iglesia Baja, 50162 Villamayor, España"},{"id": "0", "lat": "41.6336763", "lon": "-0.7485282", "title": "QUIOSCO", "subtitle":"50171 La Puebla de Alfindén, España"},{"id": "0", "lat": "41.5917856", "lon": "-0.6832896", "title": "QUIOSCO", "subtitle":"Plaza de España, 7, 50173 Nuez de Ebro, España"},{"id": "0", "lat": "41.6156495", "lon": "-0.7022804", "title": "QUIOSCO", "subtitle":"Calle de Nuestra Señora de la Peña, 50172 Alfajarín, España"},{"id": "0", "lat": "41.569807", "lon": "-0.5730713", "title": "QUIOSCO - ESTANCO", "subtitle":"50174 Villafranca de Ebro, España"},{"id": "0", "lat": "41.7161735", "lon": "-1.0247129", "title": "QUIOSCO", "subtitle":"Calle de Candanchú, 4, 50180 Utebo, España"},{"id": "0", "lat": "41.7150315", "lon": "-0.9947444", "title": "QUIOSCO", "subtitle":"50180 Utebo, España"},{"id": "0", "lat": "41.7204194", "lon": "-1.0252887", "title": "EL ARBOL", "subtitle":"Av de la Constitución, 4, 50620 Zaragoza, España"},{"id": "0", "lat": "41.7204194", "lon": "-1.0252887", "title": "QUIOSCO", "subtitle":"Av de la Constitución, 4, 50620 Zaragoza, España"},{"id": "0", "lat": "41.7043842", "lon": "-0.9959304", "title": "QUIOSCO", "subtitle":"Calle de Pablo Ruiz Picasso, 50180 Utebo, España"},{"id": "0", "lat": "41.7115407", "lon": "-0.9964085", "title": "Quiosco", "subtitle":"50180 Zaragoza, España"},{"id": "0", "lat": "41.707081", "lon": "-0.9985522", "title": "QUIOSCO", "subtitle":"Av de Zaragoza, 24, 50180 Utebo, España"},{"id": "0", "lat": "41.7065785", "lon": "-0.9985115", "title": "QUIOSCO", "subtitle":"Av de Zaragoza, 32, 50180 Utebo, España"},{"id": "0", "lat": "41.6832427", "lon": "-1.0262273", "title": "QUIOSCO", "subtitle":"Calle Mayor, 13, 50011 Zaragoza, España"},{"id": "0", "lat": "41.6832427", "lon": "-1.0262273", "title": "QUIOSCO (Fotoesfera)", "subtitle":"Calle Mayor, 13, 50011 Zaragoza, España"},{"id": "0", "lat": "41.6562873", "lon": "-0.8765379", "title": "QUIOSCO", "subtitle":"Zaragoza, España"},{"id": "0", "lat": "41.6524521", "lon": "-0.8294548", "title": "QUIOSCO", "subtitle":"Av de Movera, 50194 Zaragoza, España"},{"id": "0", "lat": "41.6176187", "lon": "-0.7809548", "title": "QUIOSCO Bazar", "subtitle":"Av de Palafox, 50195 Pastriz, España"},{"id": "0", "lat": "41.620766", "lon": "-0.781354", "title": "QUIOSCO", "subtitle":"Av de Santa Ana, 50195 Pastriz, España"},{"id": "0", "lat": "41.6562873", "lon": "-0.8765379", "title": "GASOLINERA", "subtitle":"Zaragoza, España"},{"id": "0", "lat": "41.5815824", "lon": "-1.1135564", "title": "QUIOSCO  EL ARBOL", "subtitle":"Av de la Justicia de Aragón, 50196 La Muela, España"},{"id": "0", "lat": "41.5781149", "lon": "-1.1209864", "title": "QUIOSCO", "subtitle":"Calle Mayor, 50196 La Muela, España"},{"id": "0", "lat": "41.5758184", "lon": "-1.1161166", "title": "QUIOSCO", "subtitle":"50196 La Muela, España"},{"id": "0", "lat": "41.7367741", "lon": "-1.1010045", "title": "QUIOSCO", "subtitle":"Calle del Consuelo, 50298 Pinseque, España"},{"id": "0", "lat": "41.7369935", "lon": "-1.1026995", "title": "QUIOSCO", "subtitle":"Calle de la Portalada, 50298 Pinseque, España"},{"id": "0", "lat": "41.3698274", "lon": "-1.6178011", "title": "QUIOSCO", "subtitle":"50300 Calatayud, España"},{"id": "0", "lat": "41.592447", "lon": "-0.9295234", "title": "QUIOSCO", "subtitle":"50410 Cuarte de Huerva, España"},{"id": "0", "lat": "41.5903911", "lon": "-0.9289619", "title": "QUIOSCO", "subtitle":"Calle de Ramón y Cajal, 50410 Cuarte de Huerva, España"},{"id": "0", "lat": "41.5552683", "lon": "-0.9600153", "title": "QUIOSCO", "subtitle":"Plaza de Aragón, 50420 Cadrete, España"},{"id": "0", "lat": "41.5551738", "lon": "-0.9592718", "title": "QUIOSCO", "subtitle":"Calle de la Constitución, 50420 Cadrete, España"},{"id": "0", "lat": "41.5397327", "lon": "-0.9967589", "title": "QUIOSCO Estación Servicio", "subtitle":"Carretera de Valencia, 50430 María de Huerva, España"},{"id": "0", "lat": "41.537968", "lon": "-0.9960222", "title": "QUIOSCO", "subtitle":"Calle de la Valenzuela Soler, 50430 María de Huerva, España"},{"id": "0", "lat": "41.507792", "lon": "-1.0310711", "title": "QUIOSCO", "subtitle":"Calle Mayor, 50441 Botorrita, España"},{"id": "0", "lat": "41.4613122", "lon": "-1.074339", "title": "ESTANCO", "subtitle":"Calle 3, 50450 Muel, España"},{"id": "0", "lat": "41.4715918", "lon": "-1.0823155", "title": "PANADERIA", "subtitle":"Av de García Giménez, 50450 Muel, España"},{"id": "0", "lat": "41.7186947", "lon": "-1.0322845", "title": "QUIOSCO", "subtitle":"50620 Zaragoza, España"},{"id": "0", "lat": "41.7226646", "lon": "-1.0362961", "title": "EL ARBOL", "subtitle":"Calle de Autovía de Logroño, 50620 Zaragoza, España"},{"id": "0", "lat": "41.7226646", "lon": "-1.0362961", "title": "EL ARBOL", "subtitle":"Calle de Autovía de Logroño, 50620 Zaragoza, España"},{"id": "0", "lat": "41.717375", "lon": "-1.0278329", "title": "QUIOSCO", "subtitle":"Calle de la Virgen de la Rosa, 50620 Zaragoza, España"},{"id": "0", "lat": "41.7389107", "lon": "-1.0385742", "title": "QUIOSCO", "subtitle":"Calle de San Antonio, 50629 Sobradiel, España"},{"id": "0", "lat": "41.7651038", "lon": "-1.1257082", "title": "QUIOSCO Librería", "subtitle":"50630 Alagón, España"},{"id": "0", "lat": "41.7699393", "lon": "-1.120316", "title": "QUIOSCO", "subtitle":"Calle Mayor, 12, 50630 Alagón, España"},{"id": "0", "lat": "41.7677904", "lon": "-1.1175246", "title": "EL ARBOL", "subtitle":"Av de Zaragoza, 22, 50630 Alagón, España"},{"id": "0", "lat": "41.7668378", "lon": "-1.1741576", "title": "QUIOSCO (Estanco)", "subtitle":"Calle Mayor, 50639 Figueruelas, España"},{"id": "0", "lat": "41.828867", "lon": "-1.238925", "title": "QUIOSCO", "subtitle":"Plaza del Ayuntamiento, 50640 Luceni, España"},{"id": "0", "lat": "41.7869829", "lon": "-1.2166856", "title": "EL ARBOL", "subtitle":"Calle de Zaragoza, 50690 Pedrola, España"},{"id": "0", "lat": "41.7585307", "lon": "-1.0648122", "title": "QUIOSCO", "subtitle":"Plaza Juan Pablo Bonet, 50693 Torres de Berrellén, España"},{"id": "0", "lat": "41.7578739", "lon": "-1.0675264", "title": "QUIOSCO", "subtitle":"Calle Tenor Fleta, 50693 Torres de Berrellén, España"},{"id": "0", "lat": "41.6066442", "lon": "-0.8238677", "title": "SUPERBIEN", "subtitle":"Calle de Juan de las Viñas, 50720 Zaragoza, España"},{"id": "0", "lat": "41.6045195", "lon": "-0.82356", "title": "IBERCAJA, URBANA L.C.", "subtitle":"Paseo de los Plátanos, 50720 Zaragoza, España"},{"id": "0", "lat": "41.5705252", "lon": "-0.7424857", "title": "QUIOSCO", "subtitle":"Calle del Cortés de Aragón, 50730 El Burgo de Ebro, España"},{"id": "0", "lat": "41.5726844", "lon": "-0.7413571", "title": "QUIOSCO", "subtitle":"Calle de Ramón José Sender, 50730 El Burgo de Ebro, España"},{"id": "0", "lat": "41.5095643", "lon": "-0.6334924", "title": "QUIOSCO", "subtitle":"Calle de Fernando Borbón, 50740 Fuentes de Ebro, España"},{"id": "0", "lat": "41.5122886", "lon": "-0.6308973", "title": "QUIOSCO", "subtitle":"Calle de Fernando 'El Católico', 6, 50740 Fuentes de Ebro, España"},{"id": "0", "lat": "41.5139969", "lon": "-0.6354685", "title": "EL ARBOL", "subtitle":"Paseo de la Justicia, 3, 50740 Fuentes de Ebro, España"},{"id": "0", "lat": "41.4892275", "lon": "-0.5295995", "title": "QUIOSCO", "subtitle":"Calle del Sol, 50750 Pina de Ebro, España"},{"id": "0", "lat": "41.4199427", "lon": "-0.5446912", "title": "QUIOSCO Estanco", "subtitle":"50770 Quinto, España"},{"id": "0", "lat": "41.8654025", "lon": "-0.7912499", "title": "EL ARBOL", "subtitle":"Av de Zaragoza, 27, 50800 Zuera, España"},{"id": "0", "lat": "41.8686013", "lon": "-0.7879527", "title": "QUIOSCO", "subtitle":"Calle de Zufaria, 4, 50800 Zuera, España"},{"id": "0", "lat": "41.7175793", "lon": "-0.8411086", "title": "QUIOSCO", "subtitle":"Plaza de España, 50820 Zaragoza, España"},{"id": "0", "lat": "41.7873032", "lon": "-0.8579818", "title": "QUIOSCO", "subtitle":"50830 Villanueva de Gállego, España"},{"id": "0", "lat": "41.7684527", "lon": "-0.8240568", "title": "QUIOSCO", "subtitle":"Calle del Gómez Acebo, 82, 50830 Villanueva de Gállego, España"},{"id": "0", "lat": "41.7692308", "lon": "-0.8240527", "title": "QUIOSCO", "subtitle":"Calle de Santa Catalina, 14, 50830 Villanueva de Gállego, España"},{"id": "0", "lat": "41.8327297", "lon": "-0.765731", "title": "QUIOSCO", "subtitle":"Av de Galo Ponte, 50840 San Mateo de Gállego, España"},{"id": "0", "lat": "41.830155", "lon": "-0.7686655", "title": "QUIOSCO", "subtitle":"Av del General Franco, 50840 San Mateo de Gállego, España"}]